id;size;price;price_m2;location;address;street;number;address_geopy;lat;long;hhSize;hhF;hhM;title;link;timestamp;inactive-stamp;active
6516868;11;315.0;28.63636363636364;Paradies;Grießeggstraße, Konstanz;Grießeggstraße;;Grießeggstraße, Paradies, Konstanz, Verwaltungsgemeinschaft Konstanz, Landkreis Konstanz, Regierungsbezirk Freiburg, Baden-Württemberg, 78462, Deutschland;47.66312360000001;9.1608421;4.0;2.0;1.0;möbliertes Zimmer zur Zwischenmiete in gemütlicher WG im Paradies;https://www.wg-gesucht.de/wg-zimmer-in-Konstanz-Paradies.6516868.html;20190723-0650;20190805-2050;False
7107983;12;400.0;33.333333333333336;Petershausen-West;Markgrafenstraße, Konstanz;Markgrafenstraße;;Markgrafenstraße, Petershausen-West, Konstanz, Verwaltungsgemeinschaft Konstanz, Landkreis Konstanz, Regierungsbezirk Freiburg, Baden-Württemberg, 78467, Deutschland;47.67187929999999;9.174288;3.0;2.0;0.0;12qm WG Zimmer in bester Lage, befristet;https://www.wg-gesucht.de/wg-zimmer-in-Konstanz-Petershausen.7107983.html;20190723-0650;20190728-1250;False
7418840;25;375.0;15.0;Dettingen;Waldstraße 7, Konstanz;Waldstraße;7;7, Waldstraße, Dettingen, Dettingen-Wallhausen, Konstanz, Verwaltungsgemeinschaft Konstanz, Landkreis Konstanz, Regierungsbezirk Freiburg, Baden-Württemberg, 78465, Deutschland;47.73145845;9.119638418924099;4.0;1.0;2.0;Großes Zimmer mit Balkon in gemütlicher 4er WG in ruhiger Lage;https://www.wg-gesucht.de/wg-zimmer-in-Konstanz-Dettingen.7418840.html;20190723-0650;20190808-1250;False
7408921;8;304.0;38.0;Fürstenberg;Längerbohlstraße, Konstanz;Längerbohlstraße;;Längerbohlstraße, Fürstenberg, Konstanz, Verwaltungsgemeinschaft Konstanz, Landkreis Konstanz, Regierungsbezirk Freiburg, Baden-Württemberg, 78467, Deutschland;47.6855693;9.158543;3.0;1.0;0.0;Gemütliches, möbliertes Zimmer in WG-Haus;https://www.wg-gesucht.de/wg-zimmer-in-Konstanz-Konstanz.7408921.html;20190723-0650;20190803-1250;False
7444271;11;338.0;30.72727272727273;Petershausen-West;Alemannenstr. 11, Konstanz;Alemannenstr.;11;11, Alemannenstraße, Petershausen-West, Konstanz, Verwaltungsgemeinschaft Konstanz, Landkreis Konstanz, Regierungsbezirk Freiburg, Baden-Württemberg, 78467, Deutschland;47.672214200000006;9.17281087346393;3.0;1.0;1.0;Süßes WG-Zimmer im Petershauser Park für 6 Monate oder ggf. unbefristet;https://www.wg-gesucht.de/wg-zimmer-in-Konstanz-Petershauser-Park.7444271.html;20190723-0650;20190804-2050;False
6906567;17;491.0;28.882352941176467;Petershausen-West;Ebertplatz 4, Konstanz;Ebertplatz;4;Sol - Caffebar | Vegifood, 4, Ebertplatz, Petershausen-West, Konstanz, Verwaltungsgemeinschaft Konstanz, Landkreis Konstanz, Regierungsbezirk Freiburg, Baden-Württemberg, 78467, Deutschland;47.669875299999994;9.175982300000001;4.0;1.0;2.0;Zentrales & möbliertes 17qm Zimmer in netter 4er WG;https://www.wg-gesucht.de/wg-zimmer-in-Konstanz-Petershausen.6906567.html;20190723-0650;20190812-1650;False
7432613;20;550.0;27.5;Staad;Lindauerstr. 65, Konstanz;Lindauerstr.;65;65, Lindauer Straße, Staad, Konstanz, Verwaltungsgemeinschaft Konstanz, Landkreis Konstanz, Regierungsbezirk Freiburg, Baden-Württemberg, 78464, Deutschland;47.6752834;9.20742257570023;2.0;1.0;0.0;WG-Zimmer in 2er-WG mit Garten;https://www.wg-gesucht.de/wg-zimmer-in-Konstanz-Staad.7432613.html;20190723-0650;;True
7438513;25;550.0;22.0;Industriegebiet;Max- Stromeyer- Straße, Konstanz;Max- Stromeyer- Straße;;Max-Stromeyer-Straße, Oberlohn, Konstanz-Industriegebiet, Konstanz, Verwaltungsgemeinschaft Konstanz, Landkreis Konstanz, Regierungsbezirk Freiburg, Baden-Württemberg, 78467, Deutschland;47.6778915;9.155353100000001;4.0;2.0;1.0;Großes und zentrales WG-Zimmer mit eigenem Balkon;https://www.wg-gesucht.de/wg-zimmer-in-Konstanz-Petershausen.7438513.html;20190723-0650;20190806-0850;False
6386183;25;550.0;22.0;Paradies;Gottlieberstr. 25, Konstanz;Gottlieberstr.;25;Paradies Kiosk, 25, Gottlieber Straße, Paradies, Konstanz, Verwaltungsgemeinschaft Konstanz, Landkreis Konstanz, Regierungsbezirk Freiburg, Baden-Württemberg, 78462, Deutschland;47.6621278;9.1670675;3.0;1.0;1.0;Großes, helles und zentrales WG-Zimmer im schönen Paradies;https://www.wg-gesucht.de/wg-zimmer-in-Konstanz-Paradies.6386183.html;20190723-0650;20190727-1650;False
7444379;26;400.0;15.384615384615385;Allmannsdorf;mainaustr. 190b, Konstanz;mainaustr.;190b;190b, Mainaustraße, Allmannsdorf, Konstanz, Verwaltungsgemeinschaft Konstanz, Landkreis Konstanz, Regierungsbezirk Freiburg, Baden-Württemberg, 78464, Deutschland;47.6855079;9.1988963401924;2.0;1.0;0.0;Zimmer in einer schönen Zweizimmerwohnung;https://www.wg-gesucht.de/wg-zimmer-in-Konstanz-Allmannsdorf.7444379.html;20190723-0650;;True
7444262;20;350.0;17.5;Petershausen-West;Steinstraße 17a, Konstanz;Steinstraße;17a;17a, Steinstraße, Petershausen-West, Konstanz, Verwaltungsgemeinschaft Konstanz, Landkreis Konstanz, Regierungsbezirk Freiburg, Baden-Württemberg, 78467, Deutschland;47.6736893;9.17896469064943;4.0;0.0;2.0;+++ 2 Zimmer zur Zwischenmiete in der Jägerkaserne +++;https://www.wg-gesucht.de/wg-zimmer-in-Konstanz-Petershausen.7444262.html;20190723-0650;;True
5692314;15;200.0;13.333333333333336;Allmannsdorf;Mainaustraße 78, Konstanz;Mainaustraße;78;Corps Saxonia, 78, Mainaustraße, Allmannsdorf, Konstanz, Verwaltungsgemeinschaft Konstanz, Landkreis Konstanz, Regierungsbezirk Freiburg, Baden-Württemberg, 78464, Deutschland;47.6745185;9.1974015;8.0;0.0;4.0;Helle Zimmer im 1./2. OG des Tannenhofs frei!, Lage zentral, m,19-23, uni;https://www.wg-gesucht.de/wg-zimmer-in-Konstanz-Allmannsdorf.5692314.html;20190723-0650;;True
7444235;16;300.0;18.75;Königsbau;Jacob-Burckhardt-Straße 4, Konstanz;Jacob-Burckhardt-Straße;4;Sonenbühl West I, 4, Jacob-Burckhardt-Straße, Königsbau, Konstanz, Verwaltungsgemeinschaft Konstanz, Landkreis Konstanz, Regierungsbezirk Freiburg, Baden-Württemberg, 78464, Deutschland;47.681668200000004;9.1846543341796;4.0;1.0;2.0;Furnished room at Sonnenbühl West I;https://www.wg-gesucht.de/wg-zimmer-in-Konstanz-Koenigsbau.7444235.html;20190723-0650;20190826-2050;False
7444159;12;340.0;28.33333333333333;Allmannsdorf;Mainaustraße 141, Konstanz;Mainaustraße;141;141, Mainaustraße, Allmannsdorf, Konstanz, Verwaltungsgemeinschaft Konstanz, Landkreis Konstanz, Regierungsbezirk Freiburg, Baden-Württemberg, 78464, Deutschland;47.680831;9.20169856794802;4.0;0.0;3.0;WG-Zimmer in 4er-WG in Allmannsdorf mit großem Balkon;https://www.wg-gesucht.de/wg-zimmer-in-Konstanz-Allmannsdorf.7444159.html;20190723-0650;;True
7443752;12;350.0;29.16666666666667;Altstadt;Hüetlinstraße, Konstanz;Hüetlinstraße;;Hüetlinstraße, Altstadt, Konstanz, Verwaltungsgemeinschaft Konstanz, Landkreis Konstanz, Regierungsbezirk Freiburg, Baden-Württemberg, 78462, Deutschland;47.6567051;9.1733975;4.0;2.0;1.0;Zwischen Miete für August;https://www.wg-gesucht.de/wg-zimmer-in-Konstanz-Altstadt.7443752.html;20190723-0650;;True
7372925;16;340.0;21.25;Petershausen-Ost;Mainaustr. 7a, Konstanz;Mainaustr.;7a;7a, Mainaustraße, Petershausen-Ost, Konstanz, Verwaltungsgemeinschaft Konstanz, Landkreis Konstanz, Regierungsbezirk Freiburg, Baden-Württemberg, 78464, Deutschland;47.66866810000001;9.181444789054767;3.0;2.0;0.0;Sternenplatz-WG sucht klasse Mitbewohner-/in zur Zwischenmiete;https://www.wg-gesucht.de/wg-zimmer-in-Konstanz-Petershausen.7372925.html;20190723-0650;20191021-0850;False
7317024;12;350.0;29.16666666666667;Königsbau;Jacob-Burckhardt-Str. 35, Konstanz;Jacob-Burckhardt-Str.;35;Sonnenbühl Ost Hochhaus, 35, Jacob-Burckhardt-Straße, Königsbau, Konstanz, Verwaltungsgemeinschaft Konstanz, Landkreis Konstanz, Regierungsbezirk Freiburg, Baden-Württemberg, 78464, Deutschland;47.68077260000001;9.19012443164491;4.0;1.0;1.0;Möbiliertes WG Zimmer in Seezeit Anlage zur Zwischenmiete;https://www.wg-gesucht.de/wg-zimmer-in-Konstanz-Sonnenbuehl.7317024.html;20190723-0650;20190822-2050;False
7170526;20;370.0;18.5;Paradies;Fuerstengutweg 7, Konstanz;Fuerstengutweg;7;7, Fürstengutweg, Paradies, Konstanz, Verwaltungsgemeinschaft Konstanz, Landkreis Konstanz, Regierungsbezirk Freiburg, Baden-Württemberg, 78462, Deutschland;47.66688335;9.166381739867038;2.0;0.0;0.0;2 er WG nähe Fachhochschule;https://www.wg-gesucht.de/wg-zimmer-in-Konstanz-Paradies.7170526.html;20190723-0650;20190908-1250;False
7417935;12;400.0;33.333333333333336;Altstadt;Obere Laube 48, Konstanz;Obere Laube;48;inpuncto Küchen, 48, Obere Laube, Altstadt, Konstanz, Verwaltungsgemeinschaft Konstanz, Landkreis Konstanz, Regierungsbezirk Freiburg, Baden-Württemberg, 78462, Deutschland;47.659368;9.1703904;3.0;0.0;1.0;Zwei Zimmer in Altstadt-Wg;https://www.wg-gesucht.de/wg-zimmer-in-Konstanz-Altstadt.7417935.html;20190723-0650;20190922-2050;False
6582548;15;493.0;32.86666666666667;Industriegebiet;Max-Stromeyerstr. 118, Konstanz;Max-Stromeyerstr.;118;118, Max-Stromeyer-Straße, Oberlohn, Konstanz-Industriegebiet, Konstanz, Verwaltungsgemeinschaft Konstanz, Landkreis Konstanz, Regierungsbezirk Freiburg, Baden-Württemberg, 78467, Deutschland;47.67504535;9.166234147634269;3.0;0.0;2.0;tolles Zimmer in 3er-WG in Petershausen möbliert und Vollausstattung ab 1.9.;https://www.wg-gesucht.de/wg-zimmer-in-Konstanz-Petershausen.6582548.html;20190723-0650;20190727-1650;False
7340856;11;335.0;30.45454545454545;Kreuzlingen;Hauptstrasse 121, Kreuzlingen;Hauptstrasse;121;121, Hauptstrasse, Gaissberg, Bernrainzelg, Kreuzlingen, Bezirk Kreuzlingen, Thurgau, 8280, Schweiz/Suisse/Svizzera/Svizra;47.6438927;9.182145951830847;4.0;1.0;2.0;WG-Zimmer in Kreuzlingen - Schweiz;https://www.wg-gesucht.de/wg-zimmer-in-Konstanz-Petershausen.7340856.html;20190723-0650;20190731-0850;False
7443609;16;450.0;28.125;Altstadt;Hofhalde 5, Konstanz;Hofhalde;5;5, Hofhalde, Altstadt, Konstanz, Verwaltungsgemeinschaft Konstanz, Landkreis Konstanz, Regierungsbezirk Freiburg, Baden-Württemberg, 78462, Deutschland;47.66217520000001;9.176457110824687;2.0;0.0;1.0;Sehr schönes Zimmer in der Altstadt zu vermieten;https://www.wg-gesucht.de/wg-zimmer-in-Konstanz-Altstadt.7443609.html;20190723-0650;;True
7425374;27;420.0;15.555555555555555;Petershausen-West;Bruder-Klaus-Straße, Konstanz;Bruder-Klaus-Straße;;Bruder-Klaus-Straße, Petershausen-West, Konstanz, Verwaltungsgemeinschaft Konstanz, Landkreis Konstanz, Regierungsbezirk Freiburg, Baden-Württemberg, 78467, Deutschland;47.672725899999996;9.1748996;3.0;2.0;0.0;Schönes WG-Zimmer zur Zwischenmiete;https://www.wg-gesucht.de/wg-zimmer-in-Konstanz-Petershausen.7425374.html;20190723-0650;20190815-1650;False
7388014;10;300.0;30.0;Fürstenberg;Fürstenbergstraße 12, Konstanz;Fürstenbergstraße;12;12, Fürstenbergstraße, Fürstenberg, Konstanz, Verwaltungsgemeinschaft Konstanz, Landkreis Konstanz, Regierungsbezirk Freiburg, Baden-Württemberg, 78467, Deutschland;47.687126;9.1499500139834;3.0;0.0;2.0;10qm Zimmer in 3er WG frei;https://www.wg-gesucht.de/wg-zimmer-in-Konstanz-Wollmatingen.7388014.html;20190723-0650;20190811-1650;False
7404502;17;420.0;24.70588235294117;Petershausen-West;Alemannenstr. 1, Konstanz;Alemannenstr.;1;1, Alemannenstraße, Petershausen-West, Konstanz, Verwaltungsgemeinschaft Konstanz, Landkreis Konstanz, Regierungsbezirk Freiburg, Baden-Württemberg, 78467, Deutschland;47.67121735;9.17218672989927;3.0;0.0;2.0;möbiliertes WG-Zimmer, 17qm, Top-Lage;https://www.wg-gesucht.de/wg-zimmer-in-Konstanz-Petershausen.7404502.html;20190723-0650;20190801-2050;False
7296469;12;450.0;37.5;Fürstenberg;Chérisy Straße 2, Konstanz;Chérisy Straße;2;2, Cherisy-Straße, Fürstenberg, Konstanz, Verwaltungsgemeinschaft Konstanz, Landkreis Konstanz, Regierungsbezirk Freiburg, Baden-Württemberg, 78467, Deutschland;47.6796484;9.163245199999999;3.0;2.0;0.0;Konstanz - Fürstenberg möbliertes Zimmer zur Zwischenmiete;https://www.wg-gesucht.de/wg-zimmer-in-Konstanz-Fuerstenberg.7296469.html;20190723-0650;20190922-2050;False
7155322;11;300.0;27.272727272727273;Petershausen-Ost;Zähringerplatz 22, Konstanz;Zähringerplatz;22;22, Zähringerplatz, Petershausen-Ost, Konstanz, Verwaltungsgemeinschaft Konstanz, Landkreis Konstanz, Regierungsbezirk Freiburg, Baden-Württemberg, 78464, Deutschland;47.67278085;9.1840436768899;2.0;1.0;0.0;WG-Zimmer am Zähringerplatz sucht nette Mitbewohnerin;https://www.wg-gesucht.de/wg-zimmer-in-Konstanz-Petershausen.7155322.html;20190723-0650;20190729-2050;False
7443141;17;525.0;30.882352941176467;Petershausen-West;Sankt-Gebhard Str., Konstanz;Sankt-Gebhard Str.;;Sankt-Gebhard-Straße, Petershausen-West, Konstanz, Verwaltungsgemeinschaft Konstanz, Landkreis Konstanz, Regierungsbezirk Freiburg, Baden-Württemberg, 78467, Deutschland;47.6718408;9.1761195;4.0;1.0;1.0;2 Zimmer zur Zwischenmiete  in einer 4er WG;https://www.wg-gesucht.de/wg-zimmer-in-Konstanz-Petershausen.7443141.html;20190723-0650;;True
6863268;20;330.0;16.5;Altstadt;Untere Laube 10, Konstanz;Untere Laube;10;10, Untere Laube, Altstadt, Konstanz, Verwaltungsgemeinschaft Konstanz, Landkreis Konstanz, Regierungsbezirk Freiburg, Baden-Württemberg, 78462, Deutschland;47.6641909;9.17299375;5.0;0.0;2.0;5er WG für Jungs mit grossen Zimmern ab 325 € warm;https://www.wg-gesucht.de/wg-zimmer-in-Konstanz-Paradies.6863268.html;20190723-0650;;True
6228408;18;270.0;15.0;Kreuzlingen;Löwenstraße 30, Konstanz;Löwenstraße;30;;;;4.0;0.0;3.0;Hübsches Zimmer in Kreuzlingen Altbau-Löwenstrasse ab 1.August;https://www.wg-gesucht.de/wg-zimmer-in-Konstanz-Kreuzlingen.6228408.html;20190723-0650;20190821-1250;False
6453312;27;580.0;21.48148148148148;Petershausen-West;St.-Gebhard-Str. 3, Konstanz;St.-Gebhard-Str.;3;3, Sankt-Gebhard-Straße, Petershausen-West, Konstanz, Verwaltungsgemeinschaft Konstanz, Landkreis Konstanz, Regierungsbezirk Freiburg, Baden-Württemberg, 78467, Deutschland;47.67049045;9.175679181284538;3.0;0.0;2.0;Dein möbliertes WG-Zimmer (27qm) in 3er-WG - Petershausen - tolle Lage;https://www.wg-gesucht.de/wg-zimmer-in-Konstanz-Petershausen.6453312.html;20190723-0650;20190730-1250;False
7442215;23;370.0;16.08695652173913;Petershausen-West;Goethestr. 19, Konstanz;Goethestr.;19;19, Goethestraße, Petershausen-West, Konstanz, Verwaltungsgemeinschaft Konstanz, Landkreis Konstanz, Regierungsbezirk Freiburg, Baden-Württemberg, 78467, Deutschland;47.67878620000001;9.17736294741335;3.0;0.0;2.0;Großes WG-Zimmer in ruhiger Lage und guter Anbindung zu Universität und Hochschule;https://www.wg-gesucht.de/wg-zimmer-in-Konstanz-Petershausen.7442215.html;20190723-0650;20190802-0850;False
7397253;28;497.0;17.75;Petershausen-West;Bruder-Klaus-Straße 1, Konstanz;Bruder-Klaus-Straße;1;1, Bruder-Klaus-Straße, Petershausen-West, Konstanz, Verwaltungsgemeinschaft Konstanz, Landkreis Konstanz, Regierungsbezirk Freiburg, Baden-Württemberg, 78467, Deutschland;47.6722326;9.17567972797336;3.0;2.0;0.0;Großes WG-Zimmer mit Balkon in Konstanz-Petershausen zur Zwischenmiete;https://www.wg-gesucht.de/wg-zimmer-in-Konstanz-Petershausen.7397253.html;20190723-0650;20190810-2050;False
7414835;20;415.0;20.75;Industriegebiet;Reichenaustraße, Konstanz;Reichenaustraße;;Reichenaustraße, Industriegebiet, Konstanz, Verwaltungsgemeinschaft Konstanz, Landkreis Konstanz, Regierungsbezirk Freiburg, Baden-Württemberg, 78467, Deutschland;47.684074;9.1300806;3.0;0.0;2.0;Helles 20m² Zimmer in Petershausen 3er WG;https://www.wg-gesucht.de/wg-zimmer-in-Konstanz-Petershausen.7414835.html;20190723-0650;20190729-1650;False
7441854;17;300.0;17.647058823529417;Petershausen-West;Steinstraße 17, Konstanz;Steinstraße;17;17, Steinstraße, Petershausen-West, Konstanz, Verwaltungsgemeinschaft Konstanz, Landkreis Konstanz, Regierungsbezirk Freiburg, Baden-Württemberg, 78467, Deutschland;47.67349895;9.179444025960779;7.0;3.0;3.0;Dachgeschoss-Zimmer in der Jägerkaserne wird frei!;https://www.wg-gesucht.de/wg-zimmer-in-Konstanz-Petershausen.7441854.html;20190723-0650;;True
7442650;14;385.0;27.5;Altstadt;Niederburggasse 9, Konstanz;Niederburggasse;9;9, Niederburggasse, Altstadt, Konstanz, Verwaltungsgemeinschaft Konstanz, Landkreis Konstanz, Regierungsbezirk Freiburg, Baden-Württemberg, 78462, Deutschland;47.66552995;9.17585205606821;5.0;2.0;2.0;*ZWISCHENMIETE* möbliertes Altstadt-Zimmer (5er WG)!;https://www.wg-gesucht.de/wg-zimmer-in-Konstanz-Niederburg.7442650.html;20190723-0650;;True
7367996;23;467.0;20.30434782608696;Altstadt;Brauneggerstraße 11, Konstanz;Brauneggerstraße;11;SWK A 119, 11, Brauneggerstraße, Altstadt, Konstanz, Verwaltungsgemeinschaft Konstanz, Landkreis Konstanz, Regierungsbezirk Freiburg, Baden-Württemberg, 78462, Deutschland;47.6639713;9.1704436;4.0;1.0;2.0;Paradiesisches Zimmer zur Zwischenmiete (möbliert);https://www.wg-gesucht.de/wg-zimmer-in-Konstanz-Paradies.7367996.html;20190723-0650;20190808-1650;False
7371077;20;390.0;19.5;Petershausen-West;markgrafenstraße 20, Konstanz;markgrafenstraße;20;20, Markgrafenstraße, Petershausen-West, Konstanz, Verwaltungsgemeinschaft Konstanz, Landkreis Konstanz, Regierungsbezirk Freiburg, Baden-Württemberg, 78467, Deutschland;47.67164885;9.17674315447867;3.0;1.0;1.0;Tolles Zimmer in 3er WG;https://www.wg-gesucht.de/wg-zimmer-in-Konstanz-Petershausen.7371077.html;20190723-0650;20190811-1250;False
7431556;20;460.0;23.0;Altstadt;münsterplatz, Konstanz;münsterplatz;;Münsterplatz, Altstadt, Konstanz, Verwaltungsgemeinschaft Konstanz, Landkreis Konstanz, Regierungsbezirk Freiburg, Baden-Württemberg, 78462, Deutschland;47.663590899999996;9.1751839;3.0;2.0;0.0;wunderschönes 20qm Zimmer in der Altstadt;https://www.wg-gesucht.de/wg-zimmer-in-Konstanz-Altstadt.7431556.html;20190723-0650;20190825-2050;False
7372869;16;390.0;24.375;Wollmatingen;Engelsteig, Konstanz;Engelsteig;;Engelsteig, Wollmatingen, Konstanz, Verwaltungsgemeinschaft Konstanz, Landkreis Konstanz, Regierungsbezirk Freiburg, Baden-Württemberg, 78467, Deutschland;47.6922456;9.1448709;5.0;2.0;2.0;Zimmer auf Zeit in netter 5er WG;https://www.wg-gesucht.de/wg-zimmer-in-Konstanz-Wollmatingen.7372869.html;20190723-0650;20190730-1250;False
7412856;22;470.0;21.363636363636363;Altstadt;Kreuzlingerstraße, Konstanz;Kreuzlingerstraße;;Kreuzlinger Straße, Altstadt, Konstanz, Verwaltungsgemeinschaft Konstanz, Landkreis Konstanz, Regierungsbezirk Freiburg, Baden-Württemberg, 78462, Deutschland;47.65742520000001;9.171282199999998;5.0;2.0;2.0;WG Zimmer für den Sommer;https://www.wg-gesucht.de/wg-zimmer-in-Konstanz-Altstadt.7412856.html;20190723-0650;20190826-2050;False
7386001;21;470.0;22.380952380952376;Altstadt;Brauneggerstraße 11, Konstanz;Brauneggerstraße;11;SWK A 119, 11, Brauneggerstraße, Altstadt, Konstanz, Verwaltungsgemeinschaft Konstanz, Landkreis Konstanz, Regierungsbezirk Freiburg, Baden-Württemberg, 78462, Deutschland;47.6639713;9.1704436;4.0;2.0;1.0;Voll möbliertes 21qm Zimmer im Herzen von Konstanz;https://www.wg-gesucht.de/wg-zimmer-in-Konstanz-Altstadt.7386001.html;20190723-0650;;True
7432716;27;580.0;21.48148148148148;Petershausen-West;St.-Gebhard-Straße 3, Konstanz;St.-Gebhard-Straße;3;3, Sankt-Gebhard-Straße, Petershausen-West, Konstanz, Verwaltungsgemeinschaft Konstanz, Landkreis Konstanz, Regierungsbezirk Freiburg, Baden-Württemberg, 78467, Deutschland;47.67049045;9.175679181284538;3.0;0.0;2.0;Suche Nachmieter für mein Zimmer in einer schönen, möblierten WG (ab sofort und unbefristet);https://www.wg-gesucht.de/wg-zimmer-in-Konstanz-Petershausen.7432716.html;20190723-0650;20190808-2050;False
7379924;15;465.0;31.0;Altstadt;Muntpratstraße 11, Konstanz;Muntpratstraße;11;11, Muntpratstraße, Altstadt, Konstanz, Verwaltungsgemeinschaft Konstanz, Landkreis Konstanz, Regierungsbezirk Freiburg, Baden-Württemberg, 78462, Deutschland;47.66308215;9.16867702375997;2.0;0.0;1.0;Möbliertes 15qm Zimmer in 2er WG im Paradies (zur Zwischenmiete);https://www.wg-gesucht.de/wg-zimmer-in-Konstanz-Paradies.7379924.html;20190723-0650;20190726-1250;False
7442111;15;330.0;22.0;Petershausen-West;Hindenburgstrasse 5, Konstanz;Hindenburgstrasse;5;Seezeit Wohnanlage Seerhein, 5, Hindenburgstraße, Petershausen-West, Konstanz, Verwaltungsgemeinschaft Konstanz, Landkreis Konstanz, Regierungsbezirk Freiburg, Baden-Württemberg, 78467, Deutschland;47.67169205;9.17093325;4.0;2.0;1.0;Zimmer in 4 WG apartment in seerhein from 22.07.2019;https://www.wg-gesucht.de/wg-zimmer-in-Konstanz-Litzelstetten.7442111.html;20190723-0650;20190828-1250;False
7424153;16;385.0;24.0625;Altstadt;Untere Laube 49, Konstanz;Untere Laube;49;Dischinger, 49, Untere Laube, Altstadt, Konstanz, Verwaltungsgemeinschaft Konstanz, Landkreis Konstanz, Regierungsbezirk Freiburg, Baden-Württemberg, 78462, Deutschland;47.66127585;9.17228261305542;7.0;1.0;5.0;Zimmer in 7-er WG  (frei ab August, offiziell ab September);https://www.wg-gesucht.de/wg-zimmer-in-Konstanz-Altstadt.7424153.html;20190723-0650;;True
6954519;12;395.0;32.916666666666664;Paradies;Wallgutstraße, Konstanz;Wallgutstraße;;Wallgutstraße, Paradies, Konstanz, Verwaltungsgemeinschaft Konstanz, Landkreis Konstanz, Regierungsbezirk Freiburg, Baden-Württemberg, 78462, Deutschland;47.6642659;9.1691623;3.0;1.0;1.0;Zimmer in 3er-WG im wunderschönen Paradies;https://www.wg-gesucht.de/wg-zimmer-in-Konstanz-Paradies.6954519.html;20190723-0650;20190810-1250;False
6277114;15;450.0;30.0;Paradies;Brüelstr. ..., Konstanz;Brüelstr. ...;;Brüelstraße, Paradies, Konstanz, Verwaltungsgemeinschaft Konstanz, Landkreis Konstanz, Regierungsbezirk Freiburg, Baden-Württemberg, 78462, Deutschland;47.6641998;9.1656624;2.0;0.0;1.0;Möbliertes Zimmer im Paradies;https://www.wg-gesucht.de/wg-zimmer-in-Konstanz-Paradies.6277114.html;20190723-0650;20190817-2050;False
6741303;16;283.0;17.6875;Petershausen-West;Steinstraße 17A, Konstanz;Steinstraße;17A;17a, Steinstraße, Petershausen-West, Konstanz, Verwaltungsgemeinschaft Konstanz, Landkreis Konstanz, Regierungsbezirk Freiburg, Baden-Württemberg, 78467, Deutschland;47.6736893;9.17896469064943;5.0;1.0;3.0;schönes Zimmer in Jägerkaserne vom 1.9. bis 31.3.;https://www.wg-gesucht.de/wg-zimmer-in-Konstanz-Petershausen.6741303.html;20190723-0650;20190810-1250;False
7361949;14;230.0;16.428571428571427;Altstadt;Inselgasse, Konstanz;Inselgasse;;Inselgasse, Altstadt, Konstanz, Verwaltungsgemeinschaft Konstanz, Landkreis Konstanz, Regierungsbezirk Freiburg, Baden-Württemberg, 78462, Deutschland;47.664385700000004;9.1769423;3.0;0.0;2.0;teilmöbiliertes 14 qm Zimmer inmitten der Altstadt;https://www.wg-gesucht.de/wg-zimmer-in-Konstanz-Paradies.7361949.html;20190723-0650;20191014-2050;False
7441659;17;375.0;22.058823529411764;Petershausen-West;Alter Wall, Konstanz;Alter Wall;;Alter Wall, Petershausen-Ost, Petershausen-West, Konstanz, Verwaltungsgemeinschaft Konstanz, Landkreis Konstanz, Regierungsbezirk Freiburg, Baden-Württemberg, 78464, Deutschland;47.669369;9.182374900000001;4.0;1.0;2.0;WG-Zimmer in 4er WG ab August in großer Altbauwohnung am Zähringer zur Zwischenmiete mit wahrscheinlicher Verlängerung bis Sep 2020;https://www.wg-gesucht.de/wg-zimmer-in-Konstanz-Petershausen.7441659.html;20190723-0650;20190822-2050;False
6480092;17;435.0;25.588235294117645;Paradies;Mangoldstr. 26, Konstanz;Mangoldstr.;26;26, Mangoldstraße, Paradies, Konstanz, Verwaltungsgemeinschaft Konstanz, Landkreis Konstanz, Regierungsbezirk Freiburg, Baden-Württemberg, 78462, Deutschland;47.66505095;9.16353494325946;3.0;1.0;1.0;Schönes, helles Zimmer in 3er-WG im Paradies;https://www.wg-gesucht.de/wg-zimmer-in-Konstanz-Paradies.6480092.html;20190723-0650;20190728-0850;False
7441429;16;388.0;24.25;Petershausen-West;Theodor-Heuss-Straße, Konstanz;Theodor-Heuss-Straße;;Theodor-Heuss-Straße, Petershausen-West, Konstanz, Verwaltungsgemeinschaft Konstanz, Landkreis Konstanz, Regierungsbezirk Freiburg, Baden-Württemberg, 78467, Deutschland;47.6703442;9.182333400000001;3.0;0.0;2.0;15qm Zimmer mit top Lage ab sofort zu haben!;https://www.wg-gesucht.de/wg-zimmer-in-Konstanz-Petershausen.7441429.html;20190723-0650;;True
6863247;20;330.0;16.5;Altstadt;Untere Laube 10, Konstanz;Untere Laube;10;10, Untere Laube, Altstadt, Konstanz, Verwaltungsgemeinschaft Konstanz, Landkreis Konstanz, Regierungsbezirk Freiburg, Baden-Württemberg, 78462, Deutschland;47.6641909;9.17299375;5.0;0.0;2.0;5er WG für Jungs mit grossen Zimmern ab 330 € warm;https://www.wg-gesucht.de/wg-zimmer-in-Konstanz-Paradies.6863247.html;20190723-0650;;True
7420280;20;510.0;25.5;Wollmatingen;Radolfzellerstrasse, Konstanz;Radolfzellerstrasse;;Radolfzeller Straße, Wollmatingen, Konstanz, Verwaltungsgemeinschaft Konstanz, Landkreis Konstanz, Regierungsbezirk Freiburg, Baden-Württemberg, 78467, Deutschland;47.6899593;9.1477685;4.0;0.0;3.0;WG Zimmer in KN-WOLLMATINGEN Neugründung;https://www.wg-gesucht.de/wg-zimmer-in-Konstanz-Wollmatingen.7420280.html;20190723-0650;;True
7247420;14;435.0;31.07142857142857;Königsbau;Stockackerweg 56, Konstanz;Stockackerweg;56;56, Stockackerweg, Königsbau, Konstanz, Verwaltungsgemeinschaft Konstanz, Landkreis Konstanz, Regierungsbezirk Freiburg, Baden-Württemberg, 78464, Deutschland;47.68164760000001;9.17984258657143;6.0;1.0;4.0;6er WG in Doppelhaushälfte mit Garten - Zwischenmiete über den Sommer;https://www.wg-gesucht.de/wg-zimmer-in-Konstanz-Koenigsbau.7247420.html;20190723-0650;20190923-0850;False
7423784;14;360.0;25.714285714285715;Paradies;Rheingutstraße 30, Konstanz;Rheingutstraße;30;Paradies Wohnheim, 30, Rheingutstraße, Paradies, Konstanz, Verwaltungsgemeinschaft Konstanz, Landkreis Konstanz, Regierungsbezirk Freiburg, Baden-Württemberg, 78462, Deutschland;47.66749115;9.16883390641886;2.0;0.0;1.0;Untervermietung Paradies Wohnheim Konstanz --- Doppelappartement-Zimmer --- ab SOFORT bis 30. SEPTEMBER;https://www.wg-gesucht.de/wg-zimmer-in-Konstanz-Konstanz.7423784.html;20190723-0650;;True
7438652;18;403.0;22.38888888888889;Altstadt;Bodanstraße, Konstanz;Bodanstraße;;Bodanstraße, Altstadt, Konstanz, Verwaltungsgemeinschaft Konstanz, Landkreis Konstanz, Regierungsbezirk Freiburg, Baden-Württemberg, 78462, Deutschland;47.658466600000004;9.171065800000001;4.0;1.0;2.0;18m2 Altstadt-WG bietet 6-monatiges Praktikum zur Zwischenmiete;https://www.wg-gesucht.de/wg-zimmer-in-Konstanz-Altstadt.7438652.html;20190723-0650;20190809-1250;False
7423598;18;535.0;29.722222222222207;Altstadt;Brauneggerstraße 11, Konstanz;Brauneggerstraße;11;SWK A 119, 11, Brauneggerstraße, Altstadt, Konstanz, Verwaltungsgemeinschaft Konstanz, Landkreis Konstanz, Regierungsbezirk Freiburg, Baden-Württemberg, 78462, Deutschland;47.6639713;9.1704436;4.0;1.0;2.0;Wunderschön renoviertes 18m2 Zimmer mit Loggia/Balkon im Paradies;https://www.wg-gesucht.de/wg-zimmer-in-Konstanz-Paradies.7423598.html;20190723-0650;20190812-0850;False
7440976;19;390.0;20.526315789473685;Litzelstetten;Martin-Schleyerstraße, Konstanz;Martin-Schleyerstraße;;Martin-Schleyer-Straße, Litzelstetten, Konstanz, Verwaltungsgemeinschaft Konstanz, Landkreis Konstanz, Regierungsbezirk Freiburg, Baden-Württemberg, 78465, Deutschland;47.7175912;9.1704362;3.0;2.0;0.0;WG-Zimmer frei in Litzelstetten!;https://www.wg-gesucht.de/wg-zimmer-in-Konstanz-Litzelstetten.7440976.html;20190723-0650;20190724-0650;False
6885783;16;480.0;30.0;Petershausen-West;Gottfried-Keller-Straße 46, Konstanz;Gottfried-Keller-Straße;46;46, Gottfried-Keller-Straße, Petershausen-West, Konstanz, Verwaltungsgemeinschaft Konstanz, Landkreis Konstanz, Regierungsbezirk Freiburg, Baden-Württemberg, 78467, Deutschland;47.67536629999999;9.178436999999999;3.0;1.0;1.0;Helles 16qm Zimmer in 3er WG in Konstanz Petershausen;https://www.wg-gesucht.de/wg-zimmer-in-Konstanz-Petershausen.6885783.html;20190723-0650;20190815-1250;False
7389699;15;370.0;24.66666666666667;Allmannsdorf;Fasanenweg 12, Konstanz;Fasanenweg;12;12, Fasanenweg, Allmannsdorf, Konstanz, Verwaltungsgemeinschaft Konstanz, Landkreis Konstanz, Regierungsbezirk Freiburg, Baden-Württemberg, 78464, Deutschland;47.68058045;9.1963016;5.0;2.0;2.0;Zimmer in Einfamilienhaus in Allmannsdorf !! ZWISCHENMIETE !!;https://www.wg-gesucht.de/wg-zimmer-in-Konstanz-Allmannsdorf.7389699.html;20190723-0650;;True
7440619;20;340.0;17.0;Paradies;Griesseggstr. 17, Konstanz;Griesseggstr.;17;17, Grießeggstraße, Paradies, Konstanz, Verwaltungsgemeinschaft Konstanz, Landkreis Konstanz, Regierungsbezirk Freiburg, Baden-Württemberg, 78462, Deutschland;47.664393;9.16042885674039;5.0;3.0;1.0;WG Zimmer in 5er WG;https://www.wg-gesucht.de/wg-zimmer-in-Konstanz-Paradies.7440619.html;20190723-0650;;True
7438699;17;274.0;16.11764705882353;Petershausen-West;Steinstraße 17a, Konstanz;Steinstraße;17a;17a, Steinstraße, Petershausen-West, Konstanz, Verwaltungsgemeinschaft Konstanz, Landkreis Konstanz, Regierungsbezirk Freiburg, Baden-Württemberg, 78467, Deutschland;47.6736893;9.17896469064943;5.0;2.0;2.0;WG Zimmer in der Jägerkaserne;https://www.wg-gesucht.de/wg-zimmer-in-Konstanz-Konstanz.7438699.html;20190723-0650;20190730-1250;False
6828502;18;350.0;19.444444444444443;Dettingen;Ringstr. 10, Konstanz;Ringstr.;10;10, Ringstraße, Dettingen, Dettingen-Wallhausen, Konstanz, Verwaltungsgemeinschaft Konstanz, Landkreis Konstanz, Regierungsbezirk Freiburg, Baden-Württemberg, 78465, Deutschland;47.7369073;9.1169242;9.0;4.0;4.0;Zwischenmiete Vorort Konstanz;https://www.wg-gesucht.de/wg-zimmer-in-Konstanz-Dettingen.6828502.html;20190723-0650;20190816-1650;False
6365675;17;370.0;21.764705882352942;Dettingen;Ringstr. 10, Konstanz;Ringstr.;10;10, Ringstraße, Dettingen, Dettingen-Wallhausen, Konstanz, Verwaltungsgemeinschaft Konstanz, Landkreis Konstanz, Regierungsbezirk Freiburg, Baden-Württemberg, 78465, Deutschland;47.7369073;9.1169242;9.0;2.0;6.0;WG-Zimmer Vorort Konstanz;https://www.wg-gesucht.de/wg-zimmer-in-Konstanz-Dettingen.6365675.html;20190723-0650;20200114-1250;False
7423794;14;650.0;46.42857142857143;Petershausen-West;Klingenbergstraße 8, Konstanz;Klingenbergstraße;8;8, Klingenbergstraße, Petershausen-West, Konstanz, Verwaltungsgemeinschaft Konstanz, Landkreis Konstanz, Regierungsbezirk Freiburg, Baden-Württemberg, 78467, Deutschland;47.6711941;9.174648;2.0;1.0;0.0;Sehr schönes Wg-Zimmer mit Garten und Terasse, im Studentenstadttteil von Konstanz;https://www.wg-gesucht.de/wg-zimmer-in-Konstanz-Petershausen.7423794.html;20190723-0650;20190822-2050;False
7440186;12;420.0;35.0;Petershausen-West;Markgrafenstraße, Konstanz;Markgrafenstraße;;Markgrafenstraße, Petershausen-West, Konstanz, Verwaltungsgemeinschaft Konstanz, Landkreis Konstanz, Regierungsbezirk Freiburg, Baden-Württemberg, 78467, Deutschland;47.67187929999999;9.174288;3.0;2.0;0.0;WG-Zimmer ab 1.8.;https://www.wg-gesucht.de/wg-zimmer-in-Konstanz-Petershausen.7440186.html;20190723-0650;20190815-2050;False
7418539;12;300.0;25.0;Fürstenberg;Schürmann-Horster-Weg 10, Konstanz;Schürmann-Horster-Weg;10;10, Schürmann-Horster-Weg, Fürstenberg, Konstanz, Verwaltungsgemeinschaft Konstanz, Landkreis Konstanz, Regierungsbezirk Freiburg, Baden-Württemberg, 78467, Deutschland;47.6788599;9.16155235;3.0;0.0;0.0;Zwischenmiete August-September;https://www.wg-gesucht.de/wg-zimmer-in-Konstanz-Fuerstenberg.7418539.html;20190723-0650;;True
7410311;20;307.0;15.35;Fürstenberg;Cherisystr. 6, Konstanz;Cherisystr.;6;6, Cherisy-Straße, Fürstenberg, Konstanz, Verwaltungsgemeinschaft Konstanz, Landkreis Konstanz, Regierungsbezirk Freiburg, Baden-Württemberg, 78467, Deutschland;47.679885399999996;9.16272580544875;5.0;2.0;2.0;Zimmer frei in 5er-WG;https://www.wg-gesucht.de/wg-zimmer-in-Konstanz-Fuerstenberg.7410311.html;20190723-0650;;True
7436081;23;525.0;22.82608695652174;Fürstenberg;Berliner Strasse 9, Konstanz;Berliner Strasse;9;9, Berliner Straße, Wollmatingen, Fürstenberg, Konstanz, Verwaltungsgemeinschaft Konstanz, Landkreis Konstanz, Regierungsbezirk Freiburg, Baden-Württemberg, 78467, Deutschland;47.68653375;9.14986841527778;3.0;2.0;0.0;23 qm WG-Zimmer mit großem Balkon;https://www.wg-gesucht.de/wg-zimmer-in-Konstanz-Fuerstenberg.7436081.html;20190723-0650;20190814-0850;False
7439986;24;460.0;19.166666666666668;Litzelstetten;Sankt-Katharinen-Weg 5, Konstanz;Sankt-Katharinen-Weg;5;5, Sankt-Katharinen-Weg, Litzelstetten, Konstanz, Verwaltungsgemeinschaft Konstanz, Landkreis Konstanz, Regierungsbezirk Freiburg, Baden-Württemberg, 78465, Deutschland;47.71156885;9.16909487698355;3.0;2.0;0.0;32 qm mit Balkon in Uni-Nähe;https://www.wg-gesucht.de/wg-zimmer-in-Konstanz-Konstanz.7439986.html;20190723-0650;;True
7375167;32;460.0;14.375;Litzelstetten;Sankt-Katharinen-Weg 5, Konstanz;Sankt-Katharinen-Weg;5;5, Sankt-Katharinen-Weg, Litzelstetten, Konstanz, Verwaltungsgemeinschaft Konstanz, Landkreis Konstanz, Regierungsbezirk Freiburg, Baden-Württemberg, 78465, Deutschland;47.71156885;9.16909487698355;3.0;2.0;0.0;Traumhaftes riesiges Zimmer mit Balkon in Uni-Nähe;https://www.wg-gesucht.de/wg-zimmer-in-Konstanz-Litzelstetten.7375167.html;20190723-0650;;True
6772077;15;370.0;24.66666666666667;Petershausen-West;Reichenaustraße 36, Konstanz;Reichenaustraße;36;Edeka-Baur, 36, Reichenaustraße, Petershausen-West, Konstanz, Verwaltungsgemeinschaft Konstanz, Landkreis Konstanz, Regierungsbezirk Freiburg, Baden-Württemberg, 78467, Deutschland;47.6721219;9.1675699;7.0;1.0;3.0;3 Zimmer direkt am Seerhein;https://www.wg-gesucht.de/wg-zimmer-in-Konstanz-Petershausen.6772077.html;20190723-0650;20190918-2050;False
7258465;24;500.0;20.83333333333333;Industriegebiet;Max Stromeyer Straße, Konstanz;Max Stromeyer Straße;;Max-Stromeyer-Straße, Oberlohn, Konstanz-Industriegebiet, Konstanz, Verwaltungsgemeinschaft Konstanz, Landkreis Konstanz, Regierungsbezirk Freiburg, Baden-Württemberg, 78467, Deutschland;47.6778915;9.155353100000001;4.0;1.0;1.0;Schönes großes WG Zimmer direkt am Seerhein;https://www.wg-gesucht.de/wg-zimmer-in-Konstanz-Petershausen.7258465.html;20190723-0650;20191002-0850;False
7439587;16;310.0;19.375;Petershausen-West;Theodor-Heuss-Str. 5, Konstanz;Theodor-Heuss-Str.;5;Archäologisches Landesmuseum, 5, Theodor-Heuss-Straße, Petershausen-West, Konstanz, Verwaltungsgemeinschaft Konstanz, Landkreis Konstanz, Regierungsbezirk Freiburg, Baden-Württemberg, 78467, Deutschland;47.6678445;9.17920876892389;3.0;1.0;1.0;WG-Zimmer in bester Lage zur Zwischenmiete;https://www.wg-gesucht.de/wg-zimmer-in-Konstanz-Petershausen.7439587.html;20190723-0650;20190802-1250;False
7436866;14;430.0;30.714285714285715;Fürstenberg;Bücklestr. 70b, Konstanz;Bücklestr.;70b;70b, Bücklestraße, Fürstenberg, Konstanz, Verwaltungsgemeinschaft Konstanz, Landkreis Konstanz, Regierungsbezirk Freiburg, Baden-Württemberg, 78467, Deutschland;47.677324799999994;9.17009401050932;2.0;0.0;1.0;Zimmer in Penthousewohnung in Petershausen;https://www.wg-gesucht.de/wg-zimmer-in-Konstanz-Petershausen.7436866.html;20190723-0650;20190801-1650;False
7439218;17;355.0;20.88235294117647;Kreuzlingen;Hauptstraße 49b, Kreuzlingen;Hauptstraße;49b;49b, Hauptstrasse, Gaissberg, Bernrainzelg, Kreuzlingen, Bezirk Kreuzlingen, Thurgau, 8280, Schweiz/Suisse/Svizzera/Svizra;47.64940305;9.1750436033591;12.0;4.0;7.0;17 qm² zur Zwischenmiete in Kreuzlingen;https://www.wg-gesucht.de/wg-zimmer-in-Konstanz-Kreuzlingen.7439218.html;20190723-0650;20190814-1650;False
7439193;17;265.0;15.588235294117649;Petershausen-West;Steinstraße 17a, Konstanz;Steinstraße;17a;17a, Steinstraße, Petershausen-West, Konstanz, Verwaltungsgemeinschaft Konstanz, Landkreis Konstanz, Regierungsbezirk Freiburg, Baden-Württemberg, 78467, Deutschland;47.6736893;9.17896469064943;5.0;3.0;1.0;Helles, gemütliches Zimmer in der Jägerkaserne zur Zwischenmiete;https://www.wg-gesucht.de/wg-zimmer-in-Konstanz-Petershausen.7439193.html;20190723-0650;;True
6752707;13;473.0;36.384615384615394;Petershausen-Ost;Zähringerplatz 18, Konstanz;Zähringerplatz;18;18, Zähringerplatz, Petershausen-Ost, Konstanz, Verwaltungsgemeinschaft Konstanz, Landkreis Konstanz, Regierungsbezirk Freiburg, Baden-Württemberg, 78464, Deutschland;47.6723168;9.18398464948341;4.0;3.0;0.0;WG-Zimmer direkt am Zähringerplatz;https://www.wg-gesucht.de/wg-zimmer-in-Konstanz-Petershausen.6752707.html;20190723-0650;20190731-2050;False
6098658;20;600.0;30.0;Altstadt;Rheinsteig 11a, Konstanz;Rheinsteig;11a;11a, Rheinsteig, Altstadt, Konstanz, Verwaltungsgemeinschaft Konstanz, Landkreis Konstanz, Regierungsbezirk Freiburg, Baden-Württemberg, 78462, Deutschland;47.66660575;9.17564515957172;3.0;1.0;1.0;Schönes Zimmer direkt am Rhein mit Balkon;https://www.wg-gesucht.de/wg-zimmer-in-Konstanz-Altstadt.6098658.html;20190723-0650;20190810-2050;False
7438565;17;350.0;20.58823529411765;Petershausen-West;Markgrafenstraße 51, Konstanz;Markgrafenstraße;51;51, Markgrafenstraße, Petershausen-West, Konstanz, Verwaltungsgemeinschaft Konstanz, Landkreis Konstanz, Regierungsbezirk Freiburg, Baden-Württemberg, 78467, Deutschland;47.67233525;9.17245679584149;3.0;1.0;1.0;WG - Zimmer im Herzen der Stadt, vollmöbliert, 17qm, zur Zwischenmiete;https://www.wg-gesucht.de/wg-zimmer-in-Konstanz-Petershausen.7438565.html;20190723-0650;20190726-2050;False
7431343;10;294.0;29.4;Industriegebiet;Max-Stromeyer-Straße, Konstanz;Max-Stromeyer-Straße;;Max-Stromeyer-Straße, Oberlohn, Konstanz-Industriegebiet, Konstanz, Verwaltungsgemeinschaft Konstanz, Landkreis Konstanz, Regierungsbezirk Freiburg, Baden-Württemberg, 78467, Deutschland;47.6778915;9.155353100000001;4.0;1.0;2.0;Wg-Zimmer zur Zwischenmiete in Petershausen;https://www.wg-gesucht.de/wg-zimmer-in-Konstanz-Konstanz.7431343.html;20190723-0650;20190726-2050;False
7438555;17;485.0;28.52941176470589;Wollmatingen;Sternengasse, Konstanz;Sternengasse;;Sternengasse, Wollmatingen, Konstanz, Verwaltungsgemeinschaft Konstanz, Landkreis Konstanz, Regierungsbezirk Freiburg, Baden-Württemberg, 78467, Deutschland;47.69302920000001;9.14436;4.0;1.0;2.0;Zimmer in netter 4er WG;https://www.wg-gesucht.de/wg-zimmer-in-Konstanz-Wollmatingen.7438555.html;20190723-0650;;True
7420147;15;280.0;18.666666666666668;Petershausen-West;Steinstr. 21, Konstanz;Steinstr.;21;21, Steinstraße, Petershausen-West, Konstanz, Verwaltungsgemeinschaft Konstanz, Landkreis Konstanz, Regierungsbezirk Freiburg, Baden-Württemberg, 78467, Deutschland;47.6739956;9.1781409110425;4.0;2.0;1.0;Schönes Zimmer in der Jägerkaserne;https://www.wg-gesucht.de/wg-zimmer-in-Konstanz-Petershausen.7420147.html;20190723-0650;;True
6553418;20;402.0;20.1;Altstadt;Wessenbergstraße, Konstanz;Wessenbergstraße;;Wessenbergstraße, Altstadt, Konstanz, Verwaltungsgemeinschaft Konstanz, Landkreis Konstanz, Regierungsbezirk Freiburg, Baden-Württemberg, 78462, Deutschland;47.6617516;9.174552499999999;3.0;1.0;1.0;Helles, schönes Zimmer in berufstätigen 3er WG;https://www.wg-gesucht.de/wg-zimmer-in-Konstanz-Altstadt.6553418.html;20190723-0650;20190729-1250;False
7438269;8;310.0;38.75;Fürstenberg;Höriblick 5, Konstanz;Höriblick;5;5, Höriblick, Fürstenberg, Konstanz, Verwaltungsgemeinschaft Konstanz, Landkreis Konstanz, Regierungsbezirk Freiburg, Baden-Württemberg, 78467, Deutschland;47.68868945;9.14961195;5.0;1.0;3.0;Cozy little room called Love!;https://www.wg-gesucht.de/wg-zimmer-in-Konstanz-Petershausen.7438269.html;20190723-0650;20190822-2050;False
7437392;14;330.0;23.57142857142857;Königsbau;Beyerlestrasse 21, Konstanz;Beyerlestrasse;21;21, Beyerlestraße, Petershausen-Ost, Königsbau, Konstanz, Verwaltungsgemeinschaft Konstanz, Landkreis Konstanz, Regierungsbezirk Freiburg, Baden-Württemberg, 78464, Deutschland;47.67629725;9.1863354;4.0;1.0;2.0;schönes 14qm WG-Zimmer in netter 4er WG;https://www.wg-gesucht.de/wg-zimmer-in-Konstanz-Koenigsbau.7437392.html;20190723-0650;20190729-0850;False
6206002;28;450.0;16.071428571428573;Altstadt;Gartenstr., Konstanz;Gartenstr.;;Gartenstraße, Altstadt, Konstanz, Verwaltungsgemeinschaft Konstanz, Landkreis Konstanz, Regierungsbezirk Freiburg, Baden-Württemberg, 78462, Deutschland;47.665509899999996;9.1708285;3.0;2.0;0.0;gemütliche 1,5 Zimmer im Paradies zur Zwischenmiete;https://www.wg-gesucht.de/wg-zimmer-in-Konstanz-Paradies.6206002.html;20190723-0650;20190922-2050;False
7437557;15;290.0;19.33333333333333;Paradies;Rheingutstraße 36, Konstanz;Rheingutstraße;36;Albertus-Magnus-Haus, 36, Rheingutstraße, Paradies, Konstanz, Verwaltungsgemeinschaft Konstanz, Landkreis Konstanz, Regierungsbezirk Freiburg, Baden-Württemberg, 78462, Deutschland;47.66782345;9.165685702019653;17.0;0.0;0.0;Zwischenmiete im Wohnheim nahe FH;https://www.wg-gesucht.de/wg-zimmer-in-Konstanz-Paradies.7437557.html;20190723-0650;20190822-2050;False
7413696;13;340.0;26.153846153846153;Königsbau;Jacob- Burckhardt- Straße 35, Konstanz;Jacob- Burckhardt- Straße;35;Sonnenbühl Ost Hochhaus, 35, Jacob-Burckhardt-Straße, Königsbau, Konstanz, Verwaltungsgemeinschaft Konstanz, Landkreis Konstanz, Regierungsbezirk Freiburg, Baden-Württemberg, 78464, Deutschland;47.68077260000001;9.19012443164491;4.0;2.0;1.0;Möbliertes 13qm Zimmer in netter 4er- WG möglicherweise unbefristet;https://www.wg-gesucht.de/wg-zimmer-in-Konstanz-Koenigsbau.7413696.html;20190723-0650;20190726-1250;False
6912132;16;450.0;28.125;Fürstenberg;Längerbohlstr. 29, Konstanz;Längerbohlstr.;29;29, Längerbohlstraße, Fürstenberg, Konstanz, Verwaltungsgemeinschaft Konstanz, Landkreis Konstanz, Regierungsbezirk Freiburg, Baden-Württemberg, 78467, Deutschland;47.6870131;9.15517385;6.0;3.0;2.0;WG-Zimmer in schönem Einfamilienhaus mit Garten;https://www.wg-gesucht.de/wg-zimmer-in-Konstanz-Fuerstenberg.6912132.html;20190723-0650;20190723-1850;False
7399508;20;435.0;21.75;Petershausen-West;Wollmatingerstraße 45, Konstanz;Wollmatingerstraße;45;45, Wollmatinger Straße, Petershausen-West, Konstanz, Verwaltungsgemeinschaft Konstanz, Landkreis Konstanz, Regierungsbezirk Freiburg, Baden-Württemberg, 78467, Deutschland;47.67692985;9.175923260618301;3.0;0.0;2.0;20m^2 große Wohnung zu vermieten;https://www.wg-gesucht.de/wg-zimmer-in-Konstanz-Petershausen.7399508.html;20190723-0650;20190812-0850;False
7437583;11;250.0;22.72727272727273;Allmannsdorf;Am Schmerzenmösle 42, Konstanz;Am Schmerzenmösle;42;42, Am Schmerzenmösle, Allmannsdorf, Konstanz, Verwaltungsgemeinschaft Konstanz, Landkreis Konstanz, Regierungsbezirk Freiburg, Baden-Württemberg, 78464, Deutschland;47.6823434;9.19772194355513;7.0;3.0;3.0;Zimmer in WG zur Zwischenmiete (August & September);https://www.wg-gesucht.de/wg-zimmer-in-Konstanz-Allmannsdorf.7437583.html;20190723-0650;20190911-0850;False
4362898;11;320.0;29.09090909090909;Allmannsdorf;Peter-Rosegger Weg 25, Konstanz;Peter-Rosegger Weg;25;25, Peter-Rosegger-Weg, Allmannsdorf, Konstanz, Verwaltungsgemeinschaft Konstanz, Landkreis Konstanz, Regierungsbezirk Freiburg, Baden-Württemberg, 78464, Deutschland;47.6792733;9.19881910346867;3.0;2.0;0.0;Schönes Zimmer in Uninähe;https://www.wg-gesucht.de/wg-zimmer-in-Konstanz-Allmannsdorf.4362898.html;20190723-0650;20190809-1650;False
7436712;16;460.0;28.75;Petershausen-West;Theodor-Heuss-Str., Konstanz;Theodor-Heuss-Str.;;Theodor-Heuss-Straße, Petershausen-West, Konstanz, Verwaltungsgemeinschaft Konstanz, Landkreis Konstanz, Regierungsbezirk Freiburg, Baden-Württemberg, 78467, Deutschland;47.6703442;9.182333400000001;4.0;1.0;2.0;Schönes Zimmer in 4er WG sucht ab 1. Oktober eine/n neue/n Mitbewohner/in;https://www.wg-gesucht.de/wg-zimmer-in-Konstanz-Petershausen.7436712.html;20190723-0650;20190724-0650;False
7434585;12;340.0;28.33333333333333;Königsbau;Jacob-Burckhardt-Straße 35, Konstanz;Jacob-Burckhardt-Straße;35;Sonnenbühl Ost Hochhaus, 35, Jacob-Burckhardt-Straße, Königsbau, Konstanz, Verwaltungsgemeinschaft Konstanz, Landkreis Konstanz, Regierungsbezirk Freiburg, Baden-Württemberg, 78464, Deutschland;47.68077260000001;9.19012443164491;4.0;1.0;2.0;möbliertes 12qm Zimmer zur Zwischenmiete;https://www.wg-gesucht.de/wg-zimmer-in-Konstanz-Koenigsbau.7434585.html;20190723-0650;;True
7433899;13;250.0;19.23076923076923;Allmannsdorf;Am Schmerzenmösle 24, Konstanz;Am Schmerzenmösle;24;24, Am Schmerzenmösle, Allmannsdorf, Konstanz, Verwaltungsgemeinschaft Konstanz, Landkreis Konstanz, Regierungsbezirk Freiburg, Baden-Württemberg, 78464, Deutschland;47.68265875;9.19796576429041;5.0;2.0;2.0;Günstiges Zimmer in Uninähe;https://www.wg-gesucht.de/wg-zimmer-in-Konstanz-Jungerhalde.7433899.html;20190723-0650;20190822-2050;False
7379935;16;280.0;17.5;Allmannsdorf;Bettengasse 4, Konstanz;Bettengasse;4;4, Bettengasse, Allmannsdorf, Konstanz, Verwaltungsgemeinschaft Konstanz, Landkreis Konstanz, Regierungsbezirk Freiburg, Baden-Württemberg, 78464, Deutschland;47.68116545;9.201176436380019;3.0;0.0;2.0;Möbliertes zimmer, 3er WG, mit Garten;https://www.wg-gesucht.de/wg-zimmer-in-Konstanz-Allmannsdorf.7379935.html;20190723-0650;;True
7436811;18;440.0;24.44444444444445;Fürstenberg;Bärlappweg 1, Konstanz;Bärlappweg;1;1, Bärlappweg, Fürstenberg, Konstanz, Verwaltungsgemeinschaft Konstanz, Landkreis Konstanz, Regierungsbezirk Freiburg, Baden-Württemberg, 78467, Deutschland;47.68576515;9.160603300000002;8.0;3.0;4.0;WG mit EIGENEM BAD für jedes ZIMMER!!!!;https://www.wg-gesucht.de/wg-zimmer-in-Konstanz-Fuerstenberg.7436811.html;20190723-0650;20190729-2050;False
7376383;17;260.0;15.294117647058822;Petershausen-West;Gottmannplatz, Konstanz;Gottmannplatz;;Gottmannplatz, Petershausen-West, Konstanz, Verwaltungsgemeinschaft Konstanz, Landkreis Konstanz, Regierungsbezirk Freiburg, Baden-Württemberg, 78467, Deutschland;47.67299425;9.17029904242666;4.0;1.0;2.0;Zwischenmiete in Konstanz bester 4er WG!;https://www.wg-gesucht.de/wg-zimmer-in-Konstanz-Petershausen.7376383.html;20190723-0650;;True
7415576;14;260.0;18.571428571428573;Paradies;Rheingutstraße 40, Konstanz;Rheingutstraße;40;Europahaus, 40, Rheingutstraße, Paradies, Konstanz, Verwaltungsgemeinschaft Konstanz, Landkreis Konstanz, Regierungsbezirk Freiburg, Baden-Württemberg, 78462, Deutschland;47.66805455;9.164616280961651;4.0;2.0;1.0;WG Zimmer zur Zwischenmiete;https://www.wg-gesucht.de/wg-zimmer-in-Konstanz-Paradies.7415576.html;20190723-0650;;True
7387308;17;234.0;13.764705882352946;Petershausen-West;Steinstraße 17a, Konstanz;Steinstraße;17a;17a, Steinstraße, Petershausen-West, Konstanz, Verwaltungsgemeinschaft Konstanz, Landkreis Konstanz, Regierungsbezirk Freiburg, Baden-Württemberg, 78467, Deutschland;47.6736893;9.17896469064943;5.0;2.0;1.0;Möbliertes WG Zimmer zur ZWISCHENMIETE in der Jägerkaserne;https://www.wg-gesucht.de/wg-zimmer-in-Konstanz-Petershausen.7387308.html;20190723-0650;20190730-2050;False
7397350;15;540.0;36.0;Fürstenberg;Bücklestrasse 74, Konstanz;Bücklestrasse;74;74, Bücklestraße, Fürstenberg, Konstanz, Verwaltungsgemeinschaft Konstanz, Landkreis Konstanz, Regierungsbezirk Freiburg, Baden-Württemberg, 78467, Deutschland;47.6774852;9.16878598590756;5.0;2.0;1.0;WG-Zimmer zur Untermiete (01.09.19-31.01.20);https://www.wg-gesucht.de/wg-zimmer-in-Konstanz-Petershausen.7397350.html;20190723-0650;20190815-2050;False
7387422;28;384.0;13.714285714285715;Petershausen-West;Steinstraße 17a, Konstanz;Steinstraße;17a;17a, Steinstraße, Petershausen-West, Konstanz, Verwaltungsgemeinschaft Konstanz, Landkreis Konstanz, Regierungsbezirk Freiburg, Baden-Württemberg, 78467, Deutschland;47.6736893;9.17896469064943;5.0;2.0;1.0;(Teil-)Möbliertes WG Zimmer zur ZWISCHENMIETE in der Jägerkaserne;https://www.wg-gesucht.de/wg-zimmer-in-Konstanz-Petershausen.7387422.html;20190723-0650;20190828-0850;False
7431781;18;300.0;16.666666666666668;Petershausen-West;Zähringerplatz 4, Konstanz;Zähringerplatz;4;4, Zähringerplatz, Petershausen-West, Konstanz, Verwaltungsgemeinschaft Konstanz, Landkreis Konstanz, Regierungsbezirk Freiburg, Baden-Württemberg, 78464, Deutschland;47.67138855;9.18337710674958;2.0;0.0;1.0;Zimmer in 2er WG am Zähringerplatz zur Zwischenmiete 01.08.19-01.09.19;https://www.wg-gesucht.de/wg-zimmer-in-Konstanz-Petershausen.7431781.html;20190723-0650;20190827-0850;False
7142174;12;320.0;26.66666666666667;Petershausen-West;Steinstraße 17, Konstanz;Steinstraße;17;17, Steinstraße, Petershausen-West, Konstanz, Verwaltungsgemeinschaft Konstanz, Landkreis Konstanz, Regierungsbezirk Freiburg, Baden-Württemberg, 78467, Deutschland;47.67349895;9.179444025960779;5.0;3.0;1.0;Zimmer  in der Jägerkaserne 01.08.2019-10.04.2020;https://www.wg-gesucht.de/wg-zimmer-in-Konstanz-Petershausen.7142174.html;20190723-0650;20190922-2050;False
7404876;12;200.0;16.666666666666668;Fürstenberg;Enzianweg 33, Konstanz;Enzianweg;33;33, Enzianweg, Fürstenberg, Konstanz, Verwaltungsgemeinschaft Konstanz, Landkreis Konstanz, Regierungsbezirk Freiburg, Baden-Württemberg, 78467, Deutschland;47.68191225;9.16877846685345;3.0;1.0;1.0;WG-Zimmer mit Balkon zur Zwischenmiete;https://www.wg-gesucht.de/wg-zimmer-in-Konstanz-Fuerstenberg.7404876.html;20190723-0650;20190808-2050;False
7419684;26;515.0;19.80769230769231;Paradies;Alten Graben 29, Konstanz;Alten Graben;29;29, Alten Graben, Paradies, Konstanz, Verwaltungsgemeinschaft Konstanz, Landkreis Konstanz, Regierungsbezirk Freiburg, Baden-Württemberg, 78462, Deutschland;47.6622717;9.16178889421706;3.0;2.0;0.0;schönes & großes Zimmer in 3er WG;https://www.wg-gesucht.de/wg-zimmer-in-Konstanz-Paradies.7419684.html;20190723-0650;20190807-0850;False
7421390;11;480.0;43.63636363636363;Petershausen-West;Bücklestraße, Konstanz;Bücklestraße;;Bücklestraße, Petershausen-West, Konstanz, Verwaltungsgemeinschaft Konstanz, Landkreis Konstanz, Regierungsbezirk Freiburg, Baden-Württemberg, 78467, Deutschland;47.67744620000001;9.1679316;6.0;2.0;2.0;WG-Zimmer in Petershausen zur Zwischenmiete;https://www.wg-gesucht.de/wg-zimmer-in-Konstanz-Petershausen.7421390.html;20190723-0650;20190905-2050;False
5646914;20;500.0;25.0;Paradies;Wallgutstraße, Konstanz;Wallgutstraße;;Wallgutstraße, Paradies, Konstanz, Verwaltungsgemeinschaft Konstanz, Landkreis Konstanz, Regierungsbezirk Freiburg, Baden-Württemberg, 78462, Deutschland;47.6642659;9.1691623;3.0;2.0;0.0;Möbliertes 20qm Zimmer mit Zugang zum Balkon in 3er WG;https://www.wg-gesucht.de/wg-zimmer-in-Konstanz-Paradies.5646914.html;20190723-0650;20190806-1650;False
6590333;16;330.0;20.625;Altstadt;Untere Laube 10, Konstanz;Untere Laube;10;10, Untere Laube, Altstadt, Konstanz, Verwaltungsgemeinschaft Konstanz, Landkreis Konstanz, Regierungsbezirk Freiburg, Baden-Württemberg, 78462, Deutschland;47.6641909;9.17299375;5.0;0.0;2.0;5er WG für Jungs mit grossen Zimmern ab 325 € warm;https://www.wg-gesucht.de/wg-zimmer-in-Konstanz-Paradies.6590333.html;20190723-0650;;True
7393515;17;320.0;18.823529411764707;Fürstenberg;Fürstenbergstrasse, Konstanz;Fürstenbergstrasse;;Fürstenbergstraße, Fürstenberg, Konstanz, Verwaltungsgemeinschaft Konstanz, Landkreis Konstanz, Regierungsbezirk Freiburg, Baden-Württemberg, 78467, Deutschland;47.685779499999995;9.1533231;4.0;1.0;2.0;Zwischenmiete möbliert, wir können über das Datum reden :);https://www.wg-gesucht.de/wg-zimmer-in-Konstanz-Fuerstenberg.7393515.html;20190723-0650;20190808-2050;False
6209031;16;530.0;33.125;Petershausen-West;Alter Wall, Konstanz;Alter Wall;;Alter Wall, Petershausen-Ost, Petershausen-West, Konstanz, Verwaltungsgemeinschaft Konstanz, Landkreis Konstanz, Regierungsbezirk Freiburg, Baden-Württemberg, 78464, Deutschland;47.669369;9.182374900000001;2.0;1.0;0.0;Mitbewohnerin für supertolle Wohnung in Petershausen gesucht!!;https://www.wg-gesucht.de/wg-zimmer-in-Konstanz-Petershausen.6209031.html;20190723-0650;20190907-2050;False
7434473;22;430.0;19.545454545454547;Petershausen-West;Bismarcksteig 12, Konstanz;Bismarcksteig;12;12, Bismarcksteig, Petershausen-West, Konstanz, Verwaltungsgemeinschaft Konstanz, Landkreis Konstanz, Regierungsbezirk Freiburg, Baden-Württemberg, 78467, Deutschland;47.6757252;9.178130631474527;4.0;1.0;2.0;Großes, helles Zimmer zur Zwischenmiete in Petershausen;https://www.wg-gesucht.de/wg-zimmer-in-Konstanz-Petershausen.7434473.html;20190723-0650;20190808-0850;False
7394771;16;450.0;28.125;Paradies;Fürstengutweg, Konstanz;Fürstengutweg;;Fürstengutweg, Paradies, Konstanz, Verwaltungsgemeinschaft Konstanz, Landkreis Konstanz, Regierungsbezirk Freiburg, Baden-Württemberg, 78462, Deutschland;47.6660307;9.1662758;4.0;1.0;2.0;16qm Zimmer im Paradies;https://www.wg-gesucht.de/wg-zimmer-in-Konstanz-Paradies.7394771.html;20190723-0650;20190806-1250;False
7416602;20;300.0;15.0;Petershausen-West;Steinstraße 17a, Konstanz;Steinstraße;17a;17a, Steinstraße, Petershausen-West, Konstanz, Verwaltungsgemeinschaft Konstanz, Landkreis Konstanz, Regierungsbezirk Freiburg, Baden-Württemberg, 78467, Deutschland;47.6736893;9.17896469064943;7.0;4.0;2.0;Schönes WG-Zimmer in der Jägerkaserne zur Zwischenmiete;https://www.wg-gesucht.de/wg-zimmer-in-Konstanz-Petershausen.7416602.html;20190723-0650;20190724-1050;False
7120252;16;300.0;18.75;Dettingen;Wendelsbergstr., Konstanz;Wendelsbergstr.;;Wendelsbergstraße, Dettingen, Dettingen-Wallhausen, Konstanz, Verwaltungsgemeinschaft Konstanz, Landkreis Konstanz, Regierungsbezirk Freiburg, Baden-Württemberg, 78465, Deutschland;47.7318198;9.114648800000001;3.0;2.0;0.0;Zimmer in WG;https://www.wg-gesucht.de/wg-zimmer-in-Konstanz-Dettingen.7120252.html;20190723-0650;20190822-2050;False
7433891;20;315.0;15.75;Paradies;Rheingutstraße, Konstanz;Rheingutstraße;;Rheingutstraße, Paradies, Konstanz, Verwaltungsgemeinschaft Konstanz, Landkreis Konstanz, Regierungsbezirk Freiburg, Baden-Württemberg, 78462, Deutschland;47.666812799999995;9.1707412;2.0;0.0;0.0;AMH - Zwischen Mieter ab Sofort bis Ende August;https://www.wg-gesucht.de/wg-zimmer-in-Konstanz-Konstanz.7433891.html;20190723-0650;20190808-2050;False
7218715;17;430.0;25.294117647058826;Fürstenberg;Karlsruher Str. 2A, Konstanz;Karlsruher Str.;2A;2a, Karlsruher Straße, Wollmatingen, Fürstenberg, Konstanz, Verwaltungsgemeinschaft Konstanz, Landkreis Konstanz, Regierungsbezirk Freiburg, Baden-Württemberg, 78467, Deutschland;47.68438765;9.14804830527212;2.0;0.0;1.0;WG Zimmer (17m²) in 2er WG in Fürstenberg/ Wollmatingen;https://www.wg-gesucht.de/wg-zimmer-in-Konstanz-Wollmatingen.7218715.html;20190723-0650;20190906-1650;False
7433347;23;500.0;21.73913043478261;Petershausen-Ost;Altmannstraße, Konstanz;Altmannstraße;;Altmannstraße, Petershausen-Ost, Konstanz, Verwaltungsgemeinschaft Konstanz, Landkreis Konstanz, Regierungsbezirk Freiburg, Baden-Württemberg, 78464, Deutschland;47.6687792;9.1860427;7.0;4.0;2.0;23 qm Zimmer mit Balkon und Garten in Villa am See;https://www.wg-gesucht.de/wg-zimmer-in-Konstanz-Petershausen.7433347.html;20190723-0650;;True
7433366;14;362.0;25.857142857142854;Altstadt;Kanzleistrasse 22, Konstanz;Kanzleistrasse;22;zero, 22, Kanzleistraße, Altstadt, Konstanz, Verwaltungsgemeinschaft Konstanz, Landkreis Konstanz, Regierungsbezirk Freiburg, Baden-Württemberg, 78462, Deutschland;47.6606437;9.173804800000001;3.0;2.0;0.0;WG Zimmer in der Altstadt;https://www.wg-gesucht.de/wg-zimmer-in-Konstanz-Altstadt.7433366.html;20190723-0650;;True
7427421;16;391.0;24.4375;Altstadt;Tulengasse, Konstanz;Tulengasse;;Tulengasse, Altstadt, Konstanz, Verwaltungsgemeinschaft Konstanz, Landkreis Konstanz, Regierungsbezirk Freiburg, Baden-Württemberg, 78462, Deutschland;47.6656548;9.1758094;3.0;2.0;0.0;Großes, möbliertes und helles Zimmer im Zentrum von Konstanz;https://www.wg-gesucht.de/wg-zimmer-in-Konstanz-Konstanz.7427421.html;20190723-0650;;True
7415330;25;547.0;21.88;Allmannsdorf;Mainaustraße 128, Konstanz;Mainaustraße;128;128, Mainaustraße, Allmannsdorf, Konstanz, Verwaltungsgemeinschaft Konstanz, Landkreis Konstanz, Regierungsbezirk Freiburg, Baden-Württemberg, 78464, Deutschland;47.6794799;9.20157171017213;4.0;3.0;0.0;ZWISCHENMIETE in cooler 4er WG;https://www.wg-gesucht.de/wg-zimmer-in-Konstanz-Allmannsdorf.7415330.html;20190723-0650;20190806-1650;False
7433015;21;460.0;21.904761904761905;Fürstenberg;Eduard-Mörike-Straße 9, Konstanz;Eduard-Mörike-Straße;9;9, Eduard-Mörike-Straße, Fürstenberg, Konstanz, Verwaltungsgemeinschaft Konstanz, Landkreis Konstanz, Regierungsbezirk Freiburg, Baden-Württemberg, 78467, Deutschland;47.6857052;9.15511795;9.0;3.0;5.0;Schönes möbliertes 21 qm Zimmer mit eigenem Balkonzugang :);https://www.wg-gesucht.de/wg-zimmer-in-Konstanz-Fuerstenberg.7433015.html;20190723-0650;;True
7430724;16;325.0;20.3125;Fürstenberg;Max-Josef-Metzger-Weg 2, Konstanz;Max-Josef-Metzger-Weg;2;2, Max-Josef-Metzger-Weg, Fürstenberg, Konstanz, Verwaltungsgemeinschaft Konstanz, Landkreis Konstanz, Regierungsbezirk Freiburg, Baden-Württemberg, 78467, Deutschland;47.68008320000001;9.1601528;6.0;2.0;3.0;Schönes Zimmer mit Balkon zur Miete im Cherisy Viertel;https://www.wg-gesucht.de/wg-zimmer-in-Konstanz-Fuerstenberg.7430724.html;20190723-0650;20190729-2050;False
6800768;16;460.0;28.75;Petershausen-West;Markgrafenstraße, Konstanz;Markgrafenstraße;;Markgrafenstraße, Petershausen-West, Konstanz, Verwaltungsgemeinschaft Konstanz, Landkreis Konstanz, Regierungsbezirk Freiburg, Baden-Württemberg, 78467, Deutschland;47.67187929999999;9.174288;4.0;1.0;2.0;Zwischenmieter/-in bis 03/20 in 4er-WG gesucht;https://www.wg-gesucht.de/wg-zimmer-in-Konstanz-Petershausen.6800768.html;20190723-0650;20190725-0850;False
7345660;13;890.0;68.46153846153847;Fürstenberg;Fürstenbergstr. 3, Konstanz;Fürstenbergstr.;3;3, Fürstenbergstraße, Fürstenberg, Konstanz, Verwaltungsgemeinschaft Konstanz, Landkreis Konstanz, Regierungsbezirk Freiburg, Baden-Württemberg, 78467, Deutschland;47.68806179999999;9.14905076514901;2.0;0.0;1.0;Zimmer in 2er-WG mit Dachterrasse und Blick über Konstanz, Alpen, Untersee, Reichenau, Höri;https://www.wg-gesucht.de/wg-zimmer-in-Konstanz-Fuerstenberg.7345660.html;20190723-0650;20190820-0850;False
7432555;12;355.0;29.58333333333333;Petershausen-West;Am Briel, Konstanz;Am Briel;;Am Briel, Petershausen-West, Konstanz, Verwaltungsgemeinschaft Konstanz, Landkreis Konstanz, Regierungsbezirk Freiburg, Baden-Württemberg, 78467, Deutschland;47.6760893;9.1759134;3.0;1.0;1.0;Schönes helles WG-Zimmer in zentraler Lage;https://www.wg-gesucht.de/wg-zimmer-in-Konstanz-Petershausen.7432555.html;20190723-0650;20190726-2050;False
6452288;20;340.0;17.0;Fürstenberg;Brandenburger Straße 7, Konstanz;Brandenburger Straße;7;7, Brandenburger Straße, Wollmatingen, Fürstenberg, Konstanz, Verwaltungsgemeinschaft Konstanz, Landkreis Konstanz, Regierungsbezirk Freiburg, Baden-Württemberg, 78467, Deutschland;47.684699200000004;9.14626665;4.0;2.0;1.0;Familiäre WG sucht motivierte/n Mitbewohner/in für 20qm mit Balkon und Südlage!;https://www.wg-gesucht.de/wg-zimmer-in-Konstanz-Fuerstenberg.6452288.html;20190723-0650;;True
7387665;16;515.0;32.1875;Fürstenberg;Cherisy Straße 3, Konstanz;Cherisy Straße;3;C3, 3, Cherisy-Straße, Fürstenberg, Konstanz, Verwaltungsgemeinschaft Konstanz, Landkreis Konstanz, Regierungsbezirk Freiburg, Baden-Württemberg, 78467, Deutschland;47.6790033;9.16271468567444;4.0;0.0;3.0;Vollmöbliertes Zimmer im C3 Konstanz mit Balkon (inkl. Tiefgaragenstellplatz);https://www.wg-gesucht.de/wg-zimmer-in-Konstanz-Fuerstenberg.7387665.html;20190723-0650;20190903-1250;False
7431948;14;330.0;23.57142857142857;Petershausen-West;Hindenburgstraße 11, Konstanz;Hindenburgstraße;11;Seezeit Wohnanlage Seerhein, 11, Hindenburgstraße, Petershausen-West, Konstanz, Verwaltungsgemeinschaft Konstanz, Landkreis Konstanz, Regierungsbezirk Freiburg, Baden-Württemberg, 78467, Deutschland;47.67210585;9.17054368413357;4.0;1.0;2.0;Möbliertes WG-Zimmer Nähe Seerhein zur Zwischenmiete;https://www.wg-gesucht.de/wg-zimmer-in-Konstanz-Petershausen.7431948.html;20190723-0650;20190822-1250;False
7428627;13;345.0;26.538461538461537;Königsbau;Jacob-Burckhardt-Straße 4, Konstanz;Jacob-Burckhardt-Straße;4;Sonenbühl West I, 4, Jacob-Burckhardt-Straße, Königsbau, Konstanz, Verwaltungsgemeinschaft Konstanz, Landkreis Konstanz, Regierungsbezirk Freiburg, Baden-Württemberg, 78464, Deutschland;47.681668200000004;9.1846543341796;4.0;2.0;1.0;Wohnheimszimmer Sonnenbühl West 1 (Zwischenmiete);https://www.wg-gesucht.de/wg-zimmer-in-Konstanz-Koenigsbau.7428627.html;20190723-0650;;True
7431622;15;480.0;32.0;Altstadt;Kreuzlingerstraße 46, Konstanz;Kreuzlingerstraße;46;46, Kreuzlinger Straße, Altstadt, Konstanz, Verwaltungsgemeinschaft Konstanz, Landkreis Konstanz, Regierungsbezirk Freiburg, Baden-Württemberg, 78462, Deutschland;47.6567445;9.17199891919012;2.0;0.0;1.0;WG Zimmer Altstadt Konstanz;https://www.wg-gesucht.de/wg-zimmer-in-Konstanz-Altstadt.7431622.html;20190723-0650;;True
7416419;20;450.0;22.5;Petershausen-West;Alemannenstraße 6, Konstanz;Alemannenstraße;6;6, Alemannenstraße, Petershausen-West, Konstanz, Verwaltungsgemeinschaft Konstanz, Landkreis Konstanz, Regierungsbezirk Freiburg, Baden-Württemberg, 78467, Deutschland;47.6714979;9.17282808897507;2.0;0.0;0.0;Helles möbliertes Zimmer mit Balkon / Lage Nähe Seerhein;https://www.wg-gesucht.de/wg-zimmer-in-Konstanz-Konstanz.7416419.html;20190723-0650;;True
7430587;18;350.0;19.444444444444443;Fürstenberg;Winkelstraße, Konstanz;Winkelstraße;;Winkelstraße, Fürstenberg, Konstanz, Verwaltungsgemeinschaft Konstanz, Landkreis Konstanz, Regierungsbezirk Freiburg, Baden-Württemberg, 78467, Deutschland;47.680893;9.1553578;3.0;1.0;1.0;helles WG-Zimmer mit Balkon zur Zwischenmiete von 22.07-31.08;https://www.wg-gesucht.de/wg-zimmer-in-Konstanz-Fuerstenberg.7430587.html;20190723-0650;;True
7430744;12;306.0;25.5;Fürstenberg;Schürmann-Horster-Weg 6, Konstanz;Schürmann-Horster-Weg;6;6, Schürmann-Horster-Weg, Fürstenberg, Konstanz, Verwaltungsgemeinschaft Konstanz, Landkreis Konstanz, Regierungsbezirk Freiburg, Baden-Württemberg, 78467, Deutschland;47.67908415;9.161410437870199;4.0;2.0;0.0;Zwischenmiete für August;https://www.wg-gesucht.de/wg-zimmer-in-Konstanz-Fuerstenberg.7430744.html;20190723-0650;;True
6500420;16;400.0;25.0;Petershausen-West;Bücklestraße 76, Konstanz;Bücklestraße;76;Seezeit, 76, Bücklestraße, Petershausen-West, Konstanz, Verwaltungsgemeinschaft Konstanz, Landkreis Konstanz, Regierungsbezirk Freiburg, Baden-Württemberg, 78467, Deutschland;47.67753775;9.16827457471971;3.0;0.0;2.0;Zimmer zur Untermiete für 2 Monate (20.07. - 30.09.)! :);https://www.wg-gesucht.de/wg-zimmer-in-Konstanz-Petershausen.6500420.html;20190723-0650;;True
7430561;15;310.0;20.666666666666668;Litzelstetten;Sankt-Katharinen-Weg 5, Konstanz;Sankt-Katharinen-Weg;5;5, Sankt-Katharinen-Weg, Litzelstetten, Konstanz, Verwaltungsgemeinschaft Konstanz, Landkreis Konstanz, Regierungsbezirk Freiburg, Baden-Württemberg, 78465, Deutschland;47.71156885;9.16909487698355;2.0;1.0;0.0;Mitbewohnerin gesucht;https://www.wg-gesucht.de/wg-zimmer-in-Konstanz-Litzelstetten.7430561.html;20190723-0650;;True
7430408;17;375.0;22.058823529411764;Petershausen-West;Alter Wall, Konstanz;Alter Wall;;Alter Wall, Petershausen-Ost, Petershausen-West, Konstanz, Verwaltungsgemeinschaft Konstanz, Landkreis Konstanz, Regierungsbezirk Freiburg, Baden-Württemberg, 78464, Deutschland;47.669369;9.182374900000001;4.0;1.0;2.0;WG-Zimmer in 4er WG ab August in großer Altbauwohnung am Zähringer zur Zwischenmiete mit wahrscheinlicher Verlängerung bis Sep 2020;https://www.wg-gesucht.de/wg-zimmer-in-Konstanz-Petershausen.7430408.html;20190723-0650;;True
6668521;20;495.0;24.75;Petershausen-West;Markgrafenstr., Konstanz;Markgrafenstr.;;Markgrafenstraße, Petershausen-West, Konstanz, Verwaltungsgemeinschaft Konstanz, Landkreis Konstanz, Regierungsbezirk Freiburg, Baden-Württemberg, 78467, Deutschland;47.67187929999999;9.174288;2.0;0.0;1.0;Traumhaftes 20qm WG-Zimmer in bester Lage :);https://www.wg-gesucht.de/wg-zimmer-in-Konstanz-Petershausen.6668521.html;20190723-0650;20190723-1450;False
7425105;9;295.0;32.77777777777778;Altstadt;Brauneggerstraße 13, Konstanz;Brauneggerstraße;13;13, Brauneggerstraße, Altstadt, Konstanz, Verwaltungsgemeinschaft Konstanz, Landkreis Konstanz, Regierungsbezirk Freiburg, Baden-Württemberg, 78462, Deutschland;47.6630219;9.169707525619767;4.0;1.0;2.0;Die Wilde 13 sucht neue/-n Mitbewohner/-in;https://www.wg-gesucht.de/wg-zimmer-in-Konstanz-Paradies.7425105.html;20190723-0650;20190730-1250;False
7430295;14;365.0;26.07142857142857;Wollmatingen;Drechslerweg, Konstanz;Drechslerweg;;Drechslerweg, Wollmatingen, Konstanz, Verwaltungsgemeinschaft Konstanz, Landkreis Konstanz, Regierungsbezirk Freiburg, Baden-Württemberg, 78467, Deutschland;47.686958600000004;9.1472731;2.0;1.0;0.0;Möbliertes WG-Zimmer zur Zwischenmiete von August 19- Juli 20;https://www.wg-gesucht.de/wg-zimmer-in-Konstanz-Wollmatingen.7430295.html;20190723-0650;;True
7392089;11;244.0;22.181818181818183;Königsbau;Sonnenbühlstr., Konstanz;Sonnenbühlstr.;;Sonnenbühlstraße, Königsbau, Konstanz, Verwaltungsgemeinschaft Konstanz, Landkreis Konstanz, Regierungsbezirk Freiburg, Baden-Württemberg, 78464, Deutschland;47.6791045;9.190125300000002;4.0;1.0;2.0;One cozy room in a 4-people WG in Sonnenbuehlstasse, super commu to uni or city center (nur für Studentin);https://www.wg-gesucht.de/wg-zimmer-in-Konstanz-Koenigsbau.7392089.html;20190723-0650;20190725-2050;False
7430171;12;354.0;29.5;Wollmatingen;Radolfzeller Straße 13a, Konstanz;Radolfzeller Straße;13a;13a, Radolfzeller Straße, Wollmatingen, Konstanz, Verwaltungsgemeinschaft Konstanz, Landkreis Konstanz, Regierungsbezirk Freiburg, Baden-Württemberg, 78467, Deutschland;47.689536600000004;9.147173421716198;3.0;0.0;2.0;WG-Zimmer zur Zwischenmiete in netter 3er WG;https://www.wg-gesucht.de/wg-zimmer-in-Konstanz-Wollmatingen.7430171.html;20190723-0650;20190726-0850;False
7429979;14;460.0;32.857142857142854;Paradies;Labhardsweg 6, Konstanz;Labhardsweg;6;U / Bauingenieurwesen, 6, Labhardsweg, Paradies, Konstanz, Verwaltungsgemeinschaft Konstanz, Landkreis Konstanz, Regierungsbezirk Freiburg, Baden-Württemberg, 78462, Deutschland;47.6667386;9.16748478610356;4.0;1.0;2.0;WG-Zimmer im Paradies;https://www.wg-gesucht.de/wg-zimmer-in-Konstanz-Paradies.7429979.html;20190723-0650;;True
7429866;25;240.0;9.6;Fürstenberg;Cherisy Straße 10, Konstanz;Cherisy Straße;10;10, Cherisy-Straße, Fürstenberg, Konstanz, Verwaltungsgemeinschaft Konstanz, Landkreis Konstanz, Regierungsbezirk Freiburg, Baden-Württemberg, 78467, Deutschland;47.6801039;9.16200505;5.0;2.0;2.0;Wg Zimmer in der Cherisy 5er Wg (unbefristet);https://www.wg-gesucht.de/wg-zimmer-in-Konstanz-Fuerstenberg.7429866.html;20190723-0650;20190726-0850;False
7429371;15;300.0;20.0;Fürstenberg;Cherisy-Str. 10, Konstanz;Cherisy-Str.;10;10, Cherisy-Straße, Fürstenberg, Konstanz, Verwaltungsgemeinschaft Konstanz, Landkreis Konstanz, Regierungsbezirk Freiburg, Baden-Württemberg, 78467, Deutschland;47.6801039;9.16200505;4.0;1.0;2.0;Zimmer in der Cherisy zur Untermiete (September & Oktober);https://www.wg-gesucht.de/wg-zimmer-in-Konstanz-Fuerstenberg.7429371.html;20190723-0650;20190827-1250;False
7423352;14;360.0;25.714285714285715;Petershausen-West;Am Briel 45, Konstanz;Am Briel;45;45, Am Briel, Petershausen-West, Konstanz, Verwaltungsgemeinschaft Konstanz, Landkreis Konstanz, Regierungsbezirk Freiburg, Baden-Württemberg, 78467, Deutschland;47.67576500000001;9.176842757095919;3.0;2.0;0.0;Schönes helles Zimmer zur Zwischenmiete in 3er Mädels-WG;https://www.wg-gesucht.de/wg-zimmer-in-Konstanz-Petershausen.7423352.html;20190723-0650;20190806-1650;False
6850844;20;330.0;16.5;Altstadt;Untere Laube 10, Konstanz;Untere Laube;10;10, Untere Laube, Altstadt, Konstanz, Verwaltungsgemeinschaft Konstanz, Landkreis Konstanz, Regierungsbezirk Freiburg, Baden-Württemberg, 78462, Deutschland;47.6641909;9.17299375;5.0;0.0;2.0;5er WG für Jungs mit grossen Zimmern ab 325 € warm;https://www.wg-gesucht.de/wg-zimmer-in-Konstanz-Altstadt.6850844.html;20190723-0650;20191022-2050;False
7425249;15;432.0;28.8;Altstadt;Wallgutstraße 43, Konstanz;Wallgutstraße;43;43, Wallgutstraße, Altstadt, Konstanz, Verwaltungsgemeinschaft Konstanz, Landkreis Konstanz, Regierungsbezirk Freiburg, Baden-Württemberg, 78462, Deutschland;47.66455795;9.166333300000002;3.0;2.0;0.0;Schönes Zimmer zur Untermiete in Konstanz-Paradies;https://www.wg-gesucht.de/wg-zimmer-in-Konstanz-Paradies.7425249.html;20190723-0650;;True
6176990;18;300.0;16.666666666666668;Allmannsdorf;Sonnenbühlstraße 98, Konstanz;Sonnenbühlstraße;98;Penny Markt, 98, Sonnenbühlstraße, Allmannsdorf, Konstanz, Verwaltungsgemeinschaft Konstanz, Landkreis Konstanz, Regierungsbezirk Freiburg, Baden-Württemberg, 78464, Deutschland;47.6755381;9.1973834;6.0;2.0;3.0;18qm Zimmer in bester Lage zur Zwischenmiete (möbeliert);https://www.wg-gesucht.de/wg-zimmer-in-Konstanz-Petershausen.6176990.html;20190723-0650;20190822-2050;False
7395344;16;400.0;25.0;Wollmatingen;Engelsteig, Konstanz;Engelsteig;;Engelsteig, Wollmatingen, Konstanz, Verwaltungsgemeinschaft Konstanz, Landkreis Konstanz, Regierungsbezirk Freiburg, Baden-Württemberg, 78467, Deutschland;47.6922456;9.1448709;3.0;0.0;1.0;WG-Zimmer in 3er WG zur Zwischenmiete;https://www.wg-gesucht.de/wg-zimmer-in-Konstanz-Wollmatingen.7395344.html;20190723-0650;20190821-0850;False
7428651;13;385.0;29.615384615384606;Altstadt;Bodanstraße 37, Konstanz;Bodanstraße;37;37, Bodanstraße, Altstadt, Konstanz, Verwaltungsgemeinschaft Konstanz, Landkreis Konstanz, Regierungsbezirk Freiburg, Baden-Württemberg, 78462, Deutschland;47.65827125;9.17141974537038;3.0;0.0;2.0;Zentrale WG, gut ausgestattet und gemütlich;https://www.wg-gesucht.de/wg-zimmer-in-Konstanz-Altstadt.7428651.html;20190723-0650;;True
7407499;11;450.0;40.90909090909091;Petershausen-West;Bismarcksteig 10, Konstanz;Bismarcksteig;10;10, Bismarcksteig, Petershausen-West, Konstanz, Verwaltungsgemeinschaft Konstanz, Landkreis Konstanz, Regierungsbezirk Freiburg, Baden-Württemberg, 78467, Deutschland;47.67556665;9.1780127;3.0;2.0;0.0;Möbliertes Zimmer in 3er WG in ruhiger Wohngegend;https://www.wg-gesucht.de/wg-zimmer-in-Konstanz-Konstanz.7407499.html;20190723-0650;20190807-1250;False
7428193;20;470.0;23.5;Altstadt;Brauneggerstr. 11, Konstanz;Brauneggerstr.;11;SWK A 119, 11, Brauneggerstraße, Altstadt, Konstanz, Verwaltungsgemeinschaft Konstanz, Landkreis Konstanz, Regierungsbezirk Freiburg, Baden-Württemberg, 78462, Deutschland;47.6639713;9.1704436;2.0;0.0;1.0;WG-Zimmer Konstanz Paradies zur Zwischmiete Aug-Okt;https://www.wg-gesucht.de/wg-zimmer-in-Konstanz-Paradies.7428193.html;20190723-0650;;True
7413003;20;352.0;17.6;Altstadt;Hussenstr. 29, Konstanz;Hussenstr.;29;Fischer, 29, Hussenstraße, Altstadt, Konstanz, Verwaltungsgemeinschaft Konstanz, Landkreis Konstanz, Regierungsbezirk Freiburg, Baden-Württemberg, 78462, Deutschland;47.6593042;9.1718508;5.0;3.0;1.0;Helles 20qm Zimmer in Altstadt zur Zwischenmiete;https://www.wg-gesucht.de/wg-zimmer-in-Konstanz-Altstadt.7413003.html;20190723-0650;20190829-1650;False
7427580;16;340.0;21.25;Paradies;Rheingutstr., Konstanz;Rheingutstr.;;Rheingutstraße, Paradies, Konstanz, Verwaltungsgemeinschaft Konstanz, Landkreis Konstanz, Regierungsbezirk Freiburg, Baden-Württemberg, 78462, Deutschland;47.666812799999995;9.1707412;17.0;8.0;8.0;Zimmer im AMH zur Zwischenmiete im August mit eigenem WC/Bad;https://www.wg-gesucht.de/wg-zimmer-in-Konstanz-Konstanz.7427580.html;20190723-0650;;True
5670412;25;630.0;25.2;Petershausen-West;St.-Gebhardstr., Konstanz;St.-Gebhardstr.;;Sankt-Gebhard-Straße, Petershausen-West, Konstanz, Verwaltungsgemeinschaft Konstanz, Landkreis Konstanz, Regierungsbezirk Freiburg, Baden-Württemberg, 78467, Deutschland;47.6718408;9.1761195;2.0;1.0;0.0;Großes Zimmer in 2er (Frauen) WG;https://www.wg-gesucht.de/wg-zimmer-in-Konstanz-Petershausen.5670412.html;20190723-0650;20190814-0850;False
6223743;20;300.0;15.0;Petershausen-West;Steinstraße 17a, Konstanz;Steinstraße;17a;17a, Steinstraße, Petershausen-West, Konstanz, Verwaltungsgemeinschaft Konstanz, Landkreis Konstanz, Regierungsbezirk Freiburg, Baden-Württemberg, 78467, Deutschland;47.6736893;9.17896469064943;3.0;1.0;1.0;Gemütliches 20m² Zimmer in der Jägi zur Zwischenmiete!;https://www.wg-gesucht.de/wg-zimmer-in-Konstanz-Petershausen.6223743.html;20190723-0650;;True
7427034;20;515.0;25.75;Altstadt;Gartenstr., Konstanz;Gartenstr.;;Gartenstraße, Altstadt, Konstanz, Verwaltungsgemeinschaft Konstanz, Landkreis Konstanz, Regierungsbezirk Freiburg, Baden-Württemberg, 78462, Deutschland;47.665509899999996;9.1708285;3.0;2.0;0.0;Großes Zimmer in 3er Wg, Paradies;https://www.wg-gesucht.de/wg-zimmer-in-Konstanz-Paradies.7427034.html;20190723-0650;20190729-0850;False
7427002;12;250.0;20.83333333333333;Allmannsdorf;Am Schmerzenmösle 36, Konstanz;Am Schmerzenmösle;36;36, Am Schmerzenmösle, Allmannsdorf, Konstanz, Verwaltungsgemeinschaft Konstanz, Landkreis Konstanz, Regierungsbezirk Freiburg, Baden-Württemberg, 78464, Deutschland;47.68251255;9.19786045;7.0;0.0;0.0;Schönes Zimmer mit Balkon in Uni-Nähe;https://www.wg-gesucht.de/wg-zimmer-in-Konstanz-Konstanz.7427002.html;20190723-0650;;True
7427003;10;520.0;52.0;Petershausen-West;Alemannenstrasse 4, Konstanz;Alemannenstrasse;4;4, Alemannenstraße, Petershausen-West, Konstanz, Verwaltungsgemeinschaft Konstanz, Landkreis Konstanz, Regierungsbezirk Freiburg, Baden-Württemberg, 78467, Deutschland;47.67139835;9.17275755;3.0;2.0;0.0;August Zwischenmiete WG Petershausen;https://www.wg-gesucht.de/wg-zimmer-in-Konstanz-Petershausen.7427003.html;20190723-0650;;True
7357832;13;440.0;33.846153846153854;Königsbau;Stockackerweg, Konstanz;Stockackerweg;;Stockackerweg, Königsbau, Konstanz, Verwaltungsgemeinschaft Konstanz, Landkreis Konstanz, Regierungsbezirk Freiburg, Baden-Württemberg, 78464, Deutschland;47.6799617;9.1818065;6.0;1.0;4.0;Schönes Zimmer, 5 Minuten zur Uni, mit Garten;https://www.wg-gesucht.de/wg-zimmer-in-Konstanz-Koenigsbau.7357832.html;20190723-0650;;True
7418696;13;380.0;29.23076923076923;Petershausen-Ost;Mainaustraße 2, Konstanz;Mainaustraße;2;2, Mainaustraße, Petershausen-Ost, Konstanz, Verwaltungsgemeinschaft Konstanz, Landkreis Konstanz, Regierungsbezirk Freiburg, Baden-Württemberg, 78464, Deutschland;47.66798045;9.18046396934873;4.0;0.0;3.0;(Un-)befristetes WG-Zimmer, Genaueres in der Beschreibung;https://www.wg-gesucht.de/wg-zimmer-in-Konstanz-Petershausen.7418696.html;20190723-0650;20190727-2050;False
7285615;18;520.0;28.88888888888889;Altstadt;Hussenstr. 20, Konstanz;Hussenstr.;20;Juwelier Ehniss, 20, Hussenstraße, Altstadt, Konstanz, Verwaltungsgemeinschaft Konstanz, Landkreis Konstanz, Regierungsbezirk Freiburg, Baden-Württemberg, 78462, Deutschland;47.6599877;9.1723765;5.0;2.0;2.0;Großes gemütliches Zimmer in 5er Altstadt WG;https://www.wg-gesucht.de/wg-zimmer-in-Konstanz-Altstadt.7285615.html;20190723-0650;20190827-1250;False
7426322;13;345.0;26.538461538461537;Königsbau;Jacob-Burckhardt.straße 4a, Konstanz;Jacob-Burckhardt.straße;4a;Sonenbühl West I, 4a, Jacob-Burckhardt-Straße, Königsbau, Konstanz, Verwaltungsgemeinschaft Konstanz, Landkreis Konstanz, Regierungsbezirk Freiburg, Baden-Württemberg, 78464, Deutschland;47.68163495;9.18517238277977;3.0;2.0;0.0;Zwischenmiete Wohnheim September;https://www.wg-gesucht.de/wg-zimmer-in-Konstanz-Koenigsbau.7426322.html;20190723-0650;;True
7420697;21;475.0;22.619047619047624;Allmannsdorf;Mainaustraße 136, Konstanz;Mainaustraße;136;Dr. Venedey, 136, Mainaustraße, Allmannsdorf, Konstanz, Verwaltungsgemeinschaft Konstanz, Landkreis Konstanz, Regierungsbezirk Freiburg, Baden-Württemberg, 78464, Deutschland;47.6803158;9.201982300000001;2.0;0.0;1.0;Großes Zimmer in gemütlicher 2er Wg;https://www.wg-gesucht.de/wg-zimmer-in-Konstanz-Allmannsdorf.7420697.html;20190723-0650;20190811-2050;False
7425705;16;340.0;21.25;Paradies;Rheingutstraße 36, Konstanz;Rheingutstraße;36;Albertus-Magnus-Haus, 36, Rheingutstraße, Paradies, Konstanz, Verwaltungsgemeinschaft Konstanz, Landkreis Konstanz, Regierungsbezirk Freiburg, Baden-Württemberg, 78462, Deutschland;47.66782345;9.165685702019653;10.0;0.0;0.0;Wohnheimzimmer zur Zwischenmiete --AMH--;https://www.wg-gesucht.de/wg-zimmer-in-Konstanz-Paradies.7425705.html;20190723-0650;;True
7425128;12;500.0;41.66666666666666;Königsbau;Bismarcksteig, Konstanz;Bismarcksteig;;Bismarcksteig, Königsbau, Konstanz, Verwaltungsgemeinschaft Konstanz, Landkreis Konstanz, Regierungsbezirk Freiburg, Baden-Württemberg, 78464, Deutschland;47.6775434;9.1793842;2.0;1.0;0.0;Studentin sucht Mitbewohner(in) für nette Zweier-WG;https://www.wg-gesucht.de/wg-zimmer-in-Konstanz-Petershausen.7425128.html;20190723-0650;20190726-1650;False
7194565;10;350.0;35.0;Industriegebiet;Max-Stromeyerstraße 7, Konstanz;Max-Stromeyerstraße;7;7, Max-Stromeyer-Straße, Oberlohn, Konstanz-Industriegebiet, Konstanz, Verwaltungsgemeinschaft Konstanz, Landkreis Konstanz, Regierungsbezirk Freiburg, Baden-Württemberg, 78467, Deutschland;47.6728656;9.16794598834315;4.0;1.0;2.0;Klein aber fein in bester Lage;https://www.wg-gesucht.de/wg-zimmer-in-Konstanz-Petershausen.7194565.html;20190723-0650;20190903-2050;False
7417182;18;360.0;20.0;Kreuzlingen;Alpstasse 7, Konstanz;Alpstasse;7;;;;6.0;3.0;2.0;Bauernhaus im Kreuzlinger (Ur)kern (mit Garten + 2x Wohnzimmer);https://www.wg-gesucht.de/wg-zimmer-in-Konstanz-Kreuzlingen.7417182.html;20190723-0650;;True
7425296;14;440.0;31.42857142857143;Petershausen-West;Schneckenburgstrasse 28, Konstanz;Schneckenburgstrasse;28;28, Schneckenburgstraße, Petershausen-West, Konstanz, Verwaltungsgemeinschaft Konstanz, Landkreis Konstanz, Regierungsbezirk Freiburg, Baden-Württemberg, 78467, Deutschland;47.67369705;9.17070495;3.0;0.0;0.0;WG Zimmer in Petershausen - Erstbezug nach Renovierung - für Neugründer - 3er WG!;https://www.wg-gesucht.de/wg-zimmer-in-Konstanz-Petershausen.7425296.html;20190723-0650;;True
7425454;12;290.0;24.16666666666667;Dettingen;Ringstr. 10, Konstanz;Ringstr.;10;10, Ringstraße, Dettingen, Dettingen-Wallhausen, Konstanz, Verwaltungsgemeinschaft Konstanz, Landkreis Konstanz, Regierungsbezirk Freiburg, Baden-Württemberg, 78465, Deutschland;47.7369073;9.1169242;9.0;4.0;4.0;Zwischenmiete Vorort Konstanz;https://www.wg-gesucht.de/wg-zimmer-in-Konstanz-Dettingen.7425454.html;20190723-0650;20190831-2050;False
7136760;14;570.0;40.714285714285715;Altstadt;Zur Laube 3, Konstanz;Zur Laube;3;Schweizer Eck, 3, Zur Laube, Altstadt, Konstanz, Verwaltungsgemeinschaft Konstanz, Landkreis Konstanz, Regierungsbezirk Freiburg, Baden-Württemberg, 78462, Deutschland;47.658444;9.169899599999999;3.0;0.0;2.0;3er WG/ im Zentrum;https://www.wg-gesucht.de/wg-zimmer-in-Konstanz-Altstadt.7136760.html;20190723-0650;20190730-1650;False
7423428;17;320.0;18.823529411764707;Fürstenberg;Fürstenbergstr. 92, Konstanz;Fürstenbergstr.;92;Barbara Zepf Rio-Stube, 92, Fürstenbergstraße, Fürstenberg, Konstanz, Verwaltungsgemeinschaft Konstanz, Landkreis Konstanz, Regierungsbezirk Freiburg, Baden-Württemberg, 78467, Deutschland;47.683302399999995;9.1574744;4.0;2.0;1.0;Fürstenberg-WG sucht netten Nachmieter;https://www.wg-gesucht.de/wg-zimmer-in-Konstanz-Fuerstenberg.7423428.html;20190723-0650;;True
7400622;18;286.0;15.888888888888893;Fürstenberg;Cherisy-Str. 10, Konstanz;Cherisy-Str.;10;10, Cherisy-Straße, Fürstenberg, Konstanz, Verwaltungsgemeinschaft Konstanz, Landkreis Konstanz, Regierungsbezirk Freiburg, Baden-Württemberg, 78467, Deutschland;47.6801039;9.16200505;4.0;1.0;2.0;Zwischenmiete in der Cherisy / Sublet in Cherisy;https://www.wg-gesucht.de/wg-zimmer-in-Konstanz-Fuerstenberg.7400622.html;20190723-0650;;True
7423936;13;460.0;35.384615384615394;Petershausen-West;Klingenbergstraße 13, Konstanz;Klingenbergstraße;13;13, Klingenbergstraße, Petershausen-West, Konstanz, Verwaltungsgemeinschaft Konstanz, Landkreis Konstanz, Regierungsbezirk Freiburg, Baden-Württemberg, 78467, Deutschland;47.6715322;9.17446275;2.0;1.0;0.0;Wunderschönes Wg Zimmer in Petershausen!;https://www.wg-gesucht.de/wg-zimmer-in-Konstanz-Petershausen.7423936.html;20190723-0650;;True
7423694;16;370.0;23.125;Petershausen-West;Gustav-Schwab-Strasse 11, Konstanz;Gustav-Schwab-Strasse;11;Wohnanlage Petershauser Bahnhof, 11, Gustav-Schwab-Straße, Petershausen-West, Konstanz, Verwaltungsgemeinschaft Konstanz, Landkreis Konstanz, Regierungsbezirk Freiburg, Baden-Württemberg, 78467, Deutschland;47.67480455;9.1719823;3.0;0.0;1.0;16 m^2 Zimmer in Petershausen;https://www.wg-gesucht.de/wg-zimmer-in-Konstanz-Petershausen.7423694.html;20190723-0650;20190729-1250;False
7419536;12;490.0;40.833333333333336;Fürstenberg;Cherisystraße 3, Konstanz;Cherisystraße;3;C3, 3, Cherisy-Straße, Fürstenberg, Konstanz, Verwaltungsgemeinschaft Konstanz, Landkreis Konstanz, Regierungsbezirk Freiburg, Baden-Württemberg, 78467, Deutschland;47.6790033;9.16271468567444;4.0;0.0;0.0;Modernes, Vollmöbliertes Zimmer mit Balkon in 4er WG;https://www.wg-gesucht.de/wg-zimmer-in-Konstanz-Fuerstenberg.7419536.html;20190723-0650;20190802-1250;False
7423090;13;300.0;23.07692307692308;Paradies;Rheingutstr. 34, Konstanz;Rheingutstr.;34;Jan-Hus-Haus, 34, Rheingutstraße, Paradies, Konstanz, Verwaltungsgemeinschaft Konstanz, Landkreis Konstanz, Regierungsbezirk Freiburg, Baden-Württemberg, 78462, Deutschland;47.6676849;9.16704792655039;4.0;1.0;2.0;Zimmer in 4er-WG zur Zwischenmiete, 300m von der Hochschule (August - September);https://www.wg-gesucht.de/wg-zimmer-in-Konstanz-Paradies.7423090.html;20190723-0650;;True
7095464;12;358.0;29.83333333333333;Wollmatingen;Engelsteig 14, Konstanz;Engelsteig;14;14, Engelsteig, Wollmatingen, Konstanz, Verwaltungsgemeinschaft Konstanz, Landkreis Konstanz, Regierungsbezirk Freiburg, Baden-Württemberg, 78467, Deutschland;47.69190775;9.144608812174859;10.0;4.0;5.0;Zwischenmiete in bunter 10er WG;https://www.wg-gesucht.de/wg-zimmer-in-Konstanz-Wollmatingen.7095464.html;20190723-0650;20190727-2050;False
7388635;20;351.0;17.55;Industriegebiet;Fritz-Arnold-Str. 22, Konstanz;Fritz-Arnold-Str.;22;22, Fritz-Arnold-Straße, Unterlohn, Konstanz-Industriegebiet, Konstanz, Verwaltungsgemeinschaft Konstanz, Landkreis Konstanz, Regierungsbezirk Freiburg, Baden-Württemberg, 78467, Deutschland;47.67265465;9.14804853138954;3.0;1.0;1.0;Möbliertes Zimmer mit >20qm in gut ausgestatter 3er WG, ruhige Lage, 351 EUR warm;https://www.wg-gesucht.de/wg-zimmer-in-Konstanz-Industriegebiet.7388635.html;20190723-0650;20190802-2050;False
7422574;17;395.0;23.235294117647058;Petershausen-West;Gottfried-Keller-Str. 44, Konstanz;Gottfried-Keller-Str.;44;44, Gottfried-Keller-Straße, Petershausen-West, Konstanz, Verwaltungsgemeinschaft Konstanz, Landkreis Konstanz, Regierungsbezirk Freiburg, Baden-Württemberg, 78467, Deutschland;47.675242499999996;9.17832453587982;3.0;2.0;0.0;Zimmer zur Zwischenmiete, Konstanz - Petershausen, 3er WG;https://www.wg-gesucht.de/wg-zimmer-in-Konstanz-Petershausen.7422574.html;20190723-0650;20190809-0850;False
7401340;13;370.0;28.461538461538463;Petershausen-West;Bruder-Klaus Str. 10E, Konstanz;Bruder-Klaus Str.;10E;10e, Bruder-Klaus-Straße, Petershausen-West, Konstanz, Verwaltungsgemeinschaft Konstanz, Landkreis Konstanz, Regierungsbezirk Freiburg, Baden-Württemberg, 78467, Deutschland;47.6739905;9.17279031950232;4.0;3.0;0.0;Zimmer in 4er- Mädels WG zur Zwischenmiete;https://www.wg-gesucht.de/wg-zimmer-in-Konstanz-Petershausen.7401340.html;20190723-0650;20190815-2050;False
6731673;14;425.0;30.357142857142854;Altstadt;Hussenstraße, Konstanz;Hussenstraße;;Hussenstraße, Altstadt, Konstanz, Verwaltungsgemeinschaft Konstanz, Landkreis Konstanz, Regierungsbezirk Freiburg, Baden-Württemberg, 78462, Deutschland;47.659957399999996;9.172466199999999;2.0;1.0;0.0;Zentrales Zimmer zur Zwischenmiete in Altstadt;https://www.wg-gesucht.de/wg-zimmer-in-Konstanz-Altstadt.6731673.html;20190723-0650;20190731-1650;False
7413654;13;265.0;20.384615384615387;Paradies;Rheingutstraße 34, Konstanz;Rheingutstraße;34;Jan-Hus-Haus, 34, Rheingutstraße, Paradies, Konstanz, Verwaltungsgemeinschaft Konstanz, Landkreis Konstanz, Regierungsbezirk Freiburg, Baden-Württemberg, 78462, Deutschland;47.6676849;9.16704792655039;2.0;0.0;1.0;BILLIGES WG-Zimmer im Studentenwohnheim, ZWISCHENMIETE, nur für Studenten!;https://www.wg-gesucht.de/wg-zimmer-in-Konstanz-Paradies.7413654.html;20190723-0650;;True
7402371;20;416.0;20.8;Altstadt;Wiesenstraße 7, Konstanz;Wiesenstraße;7;7, Wiesenstraße, Altstadt, Konstanz, Verwaltungsgemeinschaft Konstanz, Landkreis Konstanz, Regierungsbezirk Freiburg, Baden-Württemberg, 78462, Deutschland;47.65711455;9.175212599999998;4.0;0.0;3.0;20 m^2 Zimmer in entspannter WG mit Top Lage;https://www.wg-gesucht.de/wg-zimmer-in-Konstanz-Altstadt.7402371.html;20190723-0650;20190730-1250;False
7373976;16;450.0;28.125;Petershausen-West;Theodor-Heuss-Straße 22, Konstanz;Theodor-Heuss-Straße;22;Nico, 22, Theodor-Heuss-Straße, Petershausen-West, Konstanz, Verwaltungsgemeinschaft Konstanz, Landkreis Konstanz, Regierungsbezirk Freiburg, Baden-Württemberg, 78467, Deutschland;47.66979055;9.182121583600553;4.0;1.0;2.0;schönes 16qm Zimmer zur Zwischenmiete, Petershausen;https://www.wg-gesucht.de/wg-zimmer-in-Konstanz-Petershausen.7373976.html;20190723-0650;20190729-0850;False
7400855;18;308.0;17.11111111111111;Kreuzlingen;Im Grünen Hof 5, Konstanz;Im Grünen Hof;5;;;;4.0;2.0;1.0;Großes Zimmer mit Balkon in netter WG!;https://www.wg-gesucht.de/wg-zimmer-in-Konstanz-Kreuzlingen.7400855.html;20190723-0650;;True
7357430;15;338.0;22.53333333333333;Altstadt;Schottenstraße, Konstanz;Schottenstraße;;Schottenstraße, Altstadt, Konstanz, Verwaltungsgemeinschaft Konstanz, Landkreis Konstanz, Regierungsbezirk Freiburg, Baden-Württemberg, 78462, Deutschland;47.665162;9.172396899999999;5.0;1.0;3.0;Schönes Altbauzimmer im Zimmer im Paradies zur Zwischenmiete;https://www.wg-gesucht.de/wg-zimmer-in-Konstanz-Paradies.7357430.html;20190723-0650;;True
7389254;16;398.0;24.875;Allmannsdorf;Mainaustraße 184, Konstanz;Mainaustraße;184;184, Mainaustraße, Allmannsdorf, Konstanz, Verwaltungsgemeinschaft Konstanz, Landkreis Konstanz, Regierungsbezirk Freiburg, Baden-Württemberg, 78464, Deutschland;47.6848115;9.20110699255034;4.0;1.0;2.0;Schönes, möbliertes Zimmer in Uninähe;https://www.wg-gesucht.de/wg-zimmer-in-Konstanz-Allmannsdorf.7389254.html;20190723-0650;;True
7406755;12;400.0;33.333333333333336;Industriegebiet;Max-Stromeyerstraße 7a, Konstanz;Max-Stromeyerstraße;7a;7a, Max-Stromeyer-Straße, Oberlohn, Konstanz-Industriegebiet, Konstanz, Verwaltungsgemeinschaft Konstanz, Landkreis Konstanz, Regierungsbezirk Freiburg, Baden-Württemberg, 78467, Deutschland;47.672978;9.167564959808509;3.0;2.0;0.0;gemütliches WG Zimmer;https://www.wg-gesucht.de/wg-zimmer-in-Konstanz-Petershausen.7406755.html;20190723-0650;;True
7419411;16;480.0;30.0;Altstadt;Zasiusstraße 35, Konstanz;Zasiusstraße;35;35, Zasiusstraße, Altstadt, Konstanz, Verwaltungsgemeinschaft Konstanz, Landkreis Konstanz, Regierungsbezirk Freiburg, Baden-Württemberg, 78462, Deutschland;47.66671925;9.16969402048822;6.0;4.0;1.0;Zimmer in 6er WG neben Hochschule, 16m² unmöbeliert;https://www.wg-gesucht.de/wg-zimmer-in-Konstanz-Altstadt.7419411.html;20190723-0650;;True
7395923;14;470.0;33.57142857142857;Königsbau;Jacob-Burckhardt Straße 16, Konstanz;Jacob-Burckhardt Straße;16;16, Jacob-Burckhardt-Straße, Königsbau, Konstanz, Verwaltungsgemeinschaft Konstanz, Landkreis Konstanz, Regierungsbezirk Freiburg, Baden-Württemberg, 78464, Deutschland;47.6811184;9.187255981931749;3.0;1.0;1.0;WG-Zimmer mit Balkonzugang Südlage in 3er WG, Uninah (Einzug auch früher möglich);https://www.wg-gesucht.de/wg-zimmer-in-Konstanz-Koenigsbau.7395923.html;20190723-0650;;True
7419065;12;325.0;27.08333333333333;Altstadt;Ackertorweg 6, Konstanz;Ackertorweg;6;6, Ackertorweg, Altstadt, Konstanz, Verwaltungsgemeinschaft Konstanz, Landkreis Konstanz, Regierungsbezirk Freiburg, Baden-Württemberg, 78462, Deutschland;47.6565141;9.17412029799551;2.0;0.0;1.0;WG Zimmer in 2er WG;https://www.wg-gesucht.de/wg-zimmer-in-Konstanz-Altstadt.7419065.html;20190723-0650;;True
7390104;15;455.0;30.33333333333333;Paradies;Richentalstraße 19, Konstanz;Richentalstraße;19;19, Richentalstraße, Paradies, Konstanz, Verwaltungsgemeinschaft Konstanz, Landkreis Konstanz, Regierungsbezirk Freiburg, Baden-Württemberg, 78462, Deutschland;47.6636974;9.1648424;3.0;0.0;2.0;Zwischenmieter für möbliliertes 15qm Zimmer in entspannter Paradies 3er WG gesucht;https://www.wg-gesucht.de/wg-zimmer-in-Konstanz-Paradies.7390104.html;20190723-0650;;True
6967892;13;400.0;30.76923076923077;Petershausen-West;Weiherhofstrasse 9, Konstanz;Weiherhofstrasse;9;9, Weiherhofstraße, Petershausen-West, Konstanz, Verwaltungsgemeinschaft Konstanz, Landkreis Konstanz, Regierungsbezirk Freiburg, Baden-Württemberg, 78467, Deutschland;47.674301899999996;9.16934720695509;3.0;0.0;2.0;WG Zimmer in 3er WG in Petershausen;https://www.wg-gesucht.de/wg-zimmer-in-Konstanz-Petershausen.6967892.html;20190723-0650;;True
7392434;13;270.0;20.76923076923077;Paradies;Rheingutstr. 40, Konstanz;Rheingutstr.;40;Europahaus, 40, Rheingutstraße, Paradies, Konstanz, Verwaltungsgemeinschaft Konstanz, Landkreis Konstanz, Regierungsbezirk Freiburg, Baden-Württemberg, 78462, Deutschland;47.66805455;9.164616280961651;4.0;2.0;1.0;WG Zimmer in 4er WG im Europahaus mit Seeblick;https://www.wg-gesucht.de/wg-zimmer-in-Konstanz-Paradies.7392434.html;20190723-0650;;True
7377148;15;446.0;29.73333333333333;Paradies;Labhardsweg 6, Konstanz;Labhardsweg;6;U / Bauingenieurwesen, 6, Labhardsweg, Paradies, Konstanz, Verwaltungsgemeinschaft Konstanz, Landkreis Konstanz, Regierungsbezirk Freiburg, Baden-Württemberg, 78462, Deutschland;47.6667386;9.16748478610356;3.0;1.0;1.0;Möbliertes 15qm Zimmer zur Zwischenmiete nahe HTWG (Mit Balkon);https://www.wg-gesucht.de/wg-zimmer-in-Konstanz-Paradies.7377148.html;20190723-0650;20191001-0850;False
7415503;23;575.0;25.0;Litzelstetten;Im Baumgarten 14, Konstanz;Im Baumgarten;14;14, Im Baumgarten, Litzelstetten, Konstanz, Verwaltungsgemeinschaft Konstanz, Landkreis Konstanz, Regierungsbezirk Freiburg, Baden-Württemberg, 78465, Deutschland;47.7150695;9.17651396528964;2.0;1.0;0.0;Schönes großes WG-Zimmer in ruhiger Lage ( mit bisschen Seeblick);https://www.wg-gesucht.de/wg-zimmer-in-Konstanz-Litzelstetten.7415503.html;20190723-0650;;True
7417586;12;428.0;35.666666666666664;Altstadt;Schottenstr., Konstanz;Schottenstr.;;Schottenstraße, Altstadt, Konstanz, Verwaltungsgemeinschaft Konstanz, Landkreis Konstanz, Regierungsbezirk Freiburg, Baden-Württemberg, 78462, Deutschland;47.665162;9.172396899999999;5.0;2.0;2.0;WG-Zimmer in 5er-Berufstätigen-WG direkt am Rhein;https://www.wg-gesucht.de/wg-zimmer-in-Konstanz-Paradies.7417586.html;20190723-0650;;True
7417203;14;362.0;25.857142857142854;Altstadt;Kanzleistrasse 22, Konstanz;Kanzleistrasse;22;zero, 22, Kanzleistraße, Altstadt, Konstanz, Verwaltungsgemeinschaft Konstanz, Landkreis Konstanz, Regierungsbezirk Freiburg, Baden-Württemberg, 78462, Deutschland;47.6606437;9.173804800000001;3.0;2.0;0.0;WG Zimmer in der Altstadt zu vermieten;https://www.wg-gesucht.de/wg-zimmer-in-Konstanz-Altstadt.7417203.html;20190723-0650;;True
4628690;20;340.0;17.0;Petershausen-West;St. Gebhardstraße, Konstanz;St. Gebhardstraße;;Sankt-Gebhard-Straße, Petershausen-West, Konstanz, Verwaltungsgemeinschaft Konstanz, Landkreis Konstanz, Regierungsbezirk Freiburg, Baden-Württemberg, 78467, Deutschland;47.6718408;9.1761195;3.0;1.0;1.0;Großes WG Zimmer direkt am Seerhein zur Zwischenmiete für den Sommer;https://www.wg-gesucht.de/wg-zimmer-in-Konstanz-Petershausen.4628690.html;20190723-0650;20190823-2050;False
7409593;13;267.0;20.53846153846154;Fürstenberg;Moorkieferweg 1, Konstanz;Moorkieferweg;1;1, Moorkieferweg, Schrebergarten, Fürstenberg, Konstanz, Verwaltungsgemeinschaft Konstanz, Landkreis Konstanz, Regierungsbezirk Freiburg, Baden-Württemberg, 78467, Deutschland;47.68451955;9.164043539272619;3.0;2.0;0.0;Geräumiges WG-Zimmer in Uni-Nähe;https://www.wg-gesucht.de/wg-zimmer-in-Konstanz-Fuerstenberg.7409593.html;20190723-0650;;True
7416782;16;570.0;35.625;Petershausen-West;Alemannenstraße 10, Konstanz;Alemannenstraße;10;10, Alemannenstraße, Petershausen-West, Konstanz, Verwaltungsgemeinschaft Konstanz, Landkreis Konstanz, Regierungsbezirk Freiburg, Baden-Württemberg, 78467, Deutschland;47.67171955;9.172953938495539;2.0;0.0;1.0;Zimmer in 2er WG in super Lage;https://www.wg-gesucht.de/wg-zimmer-in-Konstanz-Petershausen.7416782.html;20190723-0650;;True
7373264;12;350.0;29.16666666666667;Petershausen-West;Alemannenstraße 6, Konstanz;Alemannenstraße;6;6, Alemannenstraße, Petershausen-West, Konstanz, Verwaltungsgemeinschaft Konstanz, Landkreis Konstanz, Regierungsbezirk Freiburg, Baden-Württemberg, 78467, Deutschland;47.6714979;9.17282808897507;2.0;0.0;1.0;Helles möbliertes Zimmer / Lage Nähe Seerhein;https://www.wg-gesucht.de/wg-zimmer-in-Konstanz-Petershausen.7373264.html;20190723-0650;;True
6736836;18;435.0;24.16666666666667;Altstadt;Hohenhausgasse, Konstanz;Hohenhausgasse;;Hohenhausgasse, Altstadt, Konstanz, Verwaltungsgemeinschaft Konstanz, Landkreis Konstanz, Regierungsbezirk Freiburg, Baden-Württemberg, 78462, Deutschland;47.662342100000004;9.1757608;3.0;2.0;0.0;schönes Zimmer  in 3-er WG direkt in der Altstadt;https://www.wg-gesucht.de/wg-zimmer-in-Konstanz-Altstadt.6736836.html;20190723-0650;20190725-1650;False
7371568;13;330.0;25.384615384615394;Altstadt;Scheffelstraße, Konstanz;Scheffelstraße;;Scheffelstraße, Altstadt, Konstanz, Verwaltungsgemeinschaft Konstanz, Landkreis Konstanz, Regierungsbezirk Freiburg, Baden-Württemberg, 78462, Deutschland;47.65766;9.1724385;3.0;0.0;2.0;So schön kann Altstadt sein - 13qm Altbau-Zimmer zur Zwischenmiete;https://www.wg-gesucht.de/wg-zimmer-in-Konstanz-Altstadt.7371568.html;20190723-0650;;True
7415096;11;238.0;21.63636363636364;Allmannsdorf;Am Schmerzenmösle 32, Konstanz;Am Schmerzenmösle;32;32, Am Schmerzenmösle, Allmannsdorf, Konstanz, Verwaltungsgemeinschaft Konstanz, Landkreis Konstanz, Regierungsbezirk Freiburg, Baden-Württemberg, 78464, Deutschland;47.6825086;9.19814035;7.0;3.0;3.0;WG Jungerhalde, Zwischenmiete;https://www.wg-gesucht.de/wg-zimmer-in-Konstanz-Allmannsdorf.7415096.html;20190723-0650;;True
7407276;13;350.0;26.92307692307693;Petershausen-West;Theodor-Heuss-Str. 29, Konstanz;Theodor-Heuss-Str.;29;29, Theodor-Heuss-Straße, Petershausen-West, Konstanz, Verwaltungsgemeinschaft Konstanz, Landkreis Konstanz, Regierungsbezirk Freiburg, Baden-Württemberg, 78467, Deutschland;47.670319899999996;9.1820603;3.0;1.0;0.0;WG-Zimmer in Top Lage zur Zwischenmiete;https://www.wg-gesucht.de/wg-zimmer-in-Konstanz-Petershausen.7407276.html;20190723-0650;20190822-0850;False
7381590;20;440.0;22.0;Petershausen-West;Theodor-Heuss-Str. 5, Konstanz;Theodor-Heuss-Str.;5;Archäologisches Landesmuseum, 5, Theodor-Heuss-Straße, Petershausen-West, Konstanz, Verwaltungsgemeinschaft Konstanz, Landkreis Konstanz, Regierungsbezirk Freiburg, Baden-Württemberg, 78467, Deutschland;47.6678445;9.17920876892389;3.0;2.0;0.0;2 Monate Zwischenmiete in zentraler 3er WG;https://www.wg-gesucht.de/wg-zimmer-in-Konstanz-Petershausen.7381590.html;20190723-0650;;True
7360137;16;500.0;31.25;Petershausen-West;Eisenbahnstr., Konstanz;Eisenbahnstr.;;Eisenbahnstraße, Petershausen-West, Konstanz, Verwaltungsgemeinschaft Konstanz, Landkreis Konstanz, Regierungsbezirk Freiburg, Baden-Württemberg, 78467, Deutschland;47.6701292;9.1803885;3.0;0.0;2.0;Möbiliertes Zimmer in 3er-WG;https://www.wg-gesucht.de/wg-zimmer-in-Konstanz-Petershausen.7360137.html;20190723-0650;;True
7410107;13;345.0;26.538461538461537;Königsbau;Jacob-Burckhardt Str. 4A, Konstanz;Jacob-Burckhardt Str.;4A;Sonenbühl West I, 4a, Jacob-Burckhardt-Straße, Königsbau, Konstanz, Verwaltungsgemeinschaft Konstanz, Landkreis Konstanz, Regierungsbezirk Freiburg, Baden-Württemberg, 78464, Deutschland;47.68163495;9.18517238277977;3.0;2.0;0.0;"Cosy room in WG, ideal for your stay in Konstanz! (+ nice bonuses ;)";https://www.wg-gesucht.de/wg-zimmer-in-Konstanz-Koenigsbau.7410107.html;20190723-0650;;True
7413879;17;300.0;17.647058823529417;Allmannsdorf;Sonnenbühlstraße 98, Konstanz;Sonnenbühlstraße;98;Penny Markt, 98, Sonnenbühlstraße, Allmannsdorf, Konstanz, Verwaltungsgemeinschaft Konstanz, Landkreis Konstanz, Regierungsbezirk Freiburg, Baden-Württemberg, 78464, Deutschland;47.6755381;9.1973834;6.0;1.0;4.0;17 qm Zimmer in bester Lage zur Zwischenmiete (möbeliert);https://www.wg-gesucht.de/wg-zimmer-in-Konstanz-Konstanz.7413879.html;20190723-0650;20190726-0850;False
7413014;21;500.0;23.809523809523807;Altstadt;Emmishoferstraße, Konstanz;Emmishoferstraße;;Emmishofer Straße, Altstadt, Konstanz, Verwaltungsgemeinschaft Konstanz, Landkreis Konstanz, Regierungsbezirk Freiburg, Baden-Württemberg, 78462, Deutschland;47.6562525;9.169611199999999;4.0;1.0;2.0;GROSSES WG-ZIMMER MIT BALKON;https://www.wg-gesucht.de/wg-zimmer-in-Konstanz-Altstadt.7413014.html;20190723-0650;;True
7372659;22;446.0;20.272727272727273;Altstadt;Untere Laube 10, Konstanz;Untere Laube;10;10, Untere Laube, Altstadt, Konstanz, Verwaltungsgemeinschaft Konstanz, Landkreis Konstanz, Regierungsbezirk Freiburg, Baden-Württemberg, 78462, Deutschland;47.6641909;9.17299375;5.0;1.0;3.0;Möbiliertes 22 qm Zimmer, 5er WG, Zwischenmiete 1.8. bis 31.11.;https://www.wg-gesucht.de/wg-zimmer-in-Konstanz-Altstadt.7372659.html;20190723-0650;;True
7413601;22;446.0;20.272727272727273;Altstadt;Untere Laube 10, Konstanz;Untere Laube;10;10, Untere Laube, Altstadt, Konstanz, Verwaltungsgemeinschaft Konstanz, Landkreis Konstanz, Regierungsbezirk Freiburg, Baden-Württemberg, 78462, Deutschland;47.6641909;9.17299375;5.0;1.0;3.0;Möbiliertes 22 qm Zimmer, 5er WG, Zwischenmiete 1.8. bis 31.11.;https://www.wg-gesucht.de/wg-zimmer-in-Konstanz-Altstadt.7413601.html;20190723-0650;;True
6465410;13;360.0;27.69230769230769;Altstadt;Gartenstraße 14, Konstanz;Gartenstraße;14;14, Gartenstraße, Altstadt, Konstanz, Verwaltungsgemeinschaft Konstanz, Landkreis Konstanz, Regierungsbezirk Freiburg, Baden-Württemberg, 78462, Deutschland;47.66546985;9.171708811046821;4.0;0.0;3.0;Schönes Zimmer im Paradies;https://www.wg-gesucht.de/wg-zimmer-in-Konstanz-Paradies.6465410.html;20190723-0650;;True
7412424;16;500.0;31.25;Petershausen-West;Hindenburgstr. 4, Konstanz;Hindenburgstr.;4;4, Hindenburgstraße, Petershausen-West, Konstanz, Verwaltungsgemeinschaft Konstanz, Landkreis Konstanz, Regierungsbezirk Freiburg, Baden-Württemberg, 78467, Deutschland;47.67121965;9.17199277915584;2.0;0.0;1.0;16 m2 Zimmer in einer 2er WG -perfekte Lage - in Petershausen;https://www.wg-gesucht.de/wg-zimmer-in-Konstanz-Konstanz.7412424.html;20190723-0650;;True
7412116;17;410.0;24.117647058823533;Allmannsdorf;Bettengasse 20, Konstanz;Bettengasse;20;20, Bettengasse, Allmannsdorf, Konstanz, Verwaltungsgemeinschaft Konstanz, Landkreis Konstanz, Regierungsbezirk Freiburg, Baden-Württemberg, 78464, Deutschland;47.6800956;9.198002070607972;2.0;1.0;0.0;Großes Zimmer in 2er WG zur Zwischenmiete- optimal für neue Studenten;https://www.wg-gesucht.de/wg-zimmer-in-Konstanz-Allmannsdorf.7412116.html;20190723-0650;;True
7411870;24;500.0;20.83333333333333;Königsbau;Sonnenbühlstraße 48, Konstanz;Sonnenbühlstraße;48;48, Sonnenbühlstraße, Königsbau, Konstanz, Verwaltungsgemeinschaft Konstanz, Landkreis Konstanz, Regierungsbezirk Freiburg, Baden-Württemberg, 78464, Deutschland;47.678381200000004;9.19204507317086;4.0;2.0;1.0;Riesenzimmer in Uninähe zur Zwischenmiete;https://www.wg-gesucht.de/wg-zimmer-in-Konstanz-Koenigsbau.7411870.html;20190723-0650;;True
7411750;18;450.0;25.0;Petershausen-West;St. Gebhard Straße 24, Konstanz;St. Gebhard Straße;24;24, Sankt-Gebhard-Straße, Petershausen-West, Konstanz, Verwaltungsgemeinschaft Konstanz, Landkreis Konstanz, Regierungsbezirk Freiburg, Baden-Württemberg, 78467, Deutschland;47.67188585;9.1763104;4.0;2.0;1.0;ZWISCHENMIETE - Altbau-WG nahe Seerhein;https://www.wg-gesucht.de/wg-zimmer-in-Konstanz-Petershausen.7411750.html;20190723-0650;;True
7411676;12;350.0;29.16666666666667;Wollmatingen;Radolfzellerstraße 22a, Konstanz;Radolfzellerstraße;22a;Friseur Aydo, 22a, Radolfzeller Straße, Wollmatingen, Konstanz, Verwaltungsgemeinschaft Konstanz, Landkreis Konstanz, Regierungsbezirk Freiburg, Baden-Württemberg, 78467, Deutschland;47.6905408;9.14709491298875;3.0;1.0;1.0;Zimmer für ein halbes Jahr zur Zwischenmiete;https://www.wg-gesucht.de/wg-zimmer-in-Konstanz-Konstanz.7411676.html;20190723-0650;;True
3427507;19;350.0;18.42105263157895;Paradies;Grießeggstraße 25, Konstanz;Grießeggstraße;25;Grießeggstraße, Paradies, Konstanz, Verwaltungsgemeinschaft Konstanz, Landkreis Konstanz, Regierungsbezirk Freiburg, Baden-Württemberg, 78462, Deutschland;47.66312360000001;9.1608421;10.0;5.0;3.0;Haus Schildkröte 19 qm Zimmer EG Süd;https://www.wg-gesucht.de/wg-zimmer-in-Konstanz-Paradies.3427507.html;20190723-0650;20190829-1650;False
